DealerID;Name;Address1;Address2;City;State;ZipCode;Phone;StoreID;URL;Latitude;Longitude;NewDate;ST;SA;Simmons OHM BT;Serta OHM BT;OHM CG;Legacy Simmons DealerID;Legacy Simmons OHM BT;Legacy Serta DealerID;Legacy Serta OHM_BT;Licensee Territory;LR Number;Brand;Rep SalesTeam;Rep Region;Rep Branch;Rep Territory;Sales Channel;Market Segment;Status Level;Rep Store Success;Hide From PTV;Email;Hide From Locator;FName;LName;User_ID;Simmons Approver;Simmons Approver_Rep_ID;Simmons Approver_User_ID;Serta Approver;Serta Approver_Rep_ID;Serta Approver_User_ID;freq;freqPhone;visitRhythm;Total Wholesale
46;Nebraska Furniture Mart;700 S 72nd St;;Omaha;NE;"	68114";(800) 359-1200;"	";www.nfm.com;"	41.2530654";"	-96.0246491";41:34,6;717525;717525;"	717525";"	";"	50180001";"	 ";"	 ";"	 ";"	 ";"	NO        ";29490;SIMMONS;Store Success;West;Mid West 1;Mid West 1_08;;;Black Diamond Preferred;YES;0;;0;Melissa;Ullrich;102021;Harris, Rick (Rep RHR);Rep RHR;101762;;;;48;0;1;
54;Lords Hardware  Furniture;102 S. 4th St;;Indianola;NE;"	69034";(308) 364-2211;"	";;"	40.2501789";"	-100.4170089";07:14,4;66893;66893;"	766893";"	";"	90004756";"	 ";"	 ";"	 ";"	 ";"	NO        ";16379;SIMMONS;Serta Simmons Bedding;SSB;Phoenix;Phoenix_01;;;;NO;0;;0;Dale;Anderson;101831;Stephens, Mason (Rep STP);Rep STP;100992;;;;0;0;4;
59;Nebraska Appliance Center;1201 W Omaha Ave;;Norfolk;NE;"	68701";(402) 379-1220;"	";;"	42.0180365";"	-97.4417199";07:14,4;449662;449662;"	7449662";"	";"	90004017";"	 ";"	 ";"	 ";"	 ";"	NO        ";16381;SIMMONS;Serta Simmons Bedding;SSB;Minneapolis;Minneapolis_05;;;;NO;0;;0;Andrea;McCoy;101917;McKittrick, Matt (Rep MMC);Rep MMC;101759;;;;0;0;4;
1018;Carson Pirie Scott Clearance Center;1835 W Jefferson Ave;;Naperville;IL;"	60540";(630) 305-0194;"	";www.carsons.com/shop/bed-bath/mattresses/facet-brand_Beautyrest/;"	41.7707224";"	-88.1978656";13:46,1;212380;212380;"	7302008";"	";"	50050000";"	 ";"	 ";"	 ";"	 ";"	NO        ";25383;SIMMONS;Store Success;West;Mid West 1;Mid West 1_11;;;;YES;0;;1;Scott ;Gustafson;101660;Ritchey, Roger (Rep RCY);Rep RCY;100164;;;;24;4;2;
1029;Palisades Furniture;83 Dean St.;;Englewood;NJ;"	07631";(201) 568-3500;"	";www.palisadefurniture.com;"	40.89075";"	-73.9756796";07:14,5;7300574;7300574;"	7300574";"	";"	90002540";"	 ";"	 ";"	 ";"	 ";"	NO        ";16385;SIMMONS;Serta Simmons Bedding;SSB;New York;New York_08;;;;NO;0;;0;James;Mele;101369;Leyva, Lou (Rep LLE);Rep LLE;101752;;;;0;0;4;
1051;Edwards;26 S Main St.;;Logan;UT;"	84321";(435) 752-4526;"	";;"	41.7308803";"	-111.8345126";41:35,0;60806;60806;"	760806";"	";"	70740070";"	 ";"	 ";"	 ";"	 ";"	yes       ";16386;SIMMONS;Simmons Bedding;Simmons;Simmons West;West 1;;;;NO;0;;0;Brad;Searle;101643;Mersbach, Tom (REP TME);REP TME;101569;;;;0;0;4;
1052;Edwards;1670 South Hwy 165;;Providence;UT;"	84321";(435) 753-1126;"	";;"	41.7034107";"	-111.8348325";41:35,1;60806;60806;"	760806";"	";"	70740070";"	 ";"	 ";"	 ";"	 ";"	yes       ";16387;SIMMONS;Simmons Bedding;Simmons;Simmons West;West 1;;;;NO;0;;0;Brad;Searle;101643;Mersbach, Tom (REP TME);REP TME;101569;;;;0;0;4;
1070;Mattress Factory Outlet;4708 NE Thurston Way;Ste B;Vancouver;WA;"	98662";(360) 260-2222;"	";bettersleepforless.com/About_Mattress_Factory_Outlet.aspx;"	45.656539";"	-122.5904941";07:14,5;231489;231489;"	7231489";"	";"	70080661";"	 ";"	 ";"	 ";"	 ";"	NO        ";16392;SIMMONS;Serta Simmons Bedding;SSB;Seattle;Seattle_05;;;;NO;0;;0;Stuart;Rice;101308;Rice, Stuart (Rep SRE);Rep SRE;101308;;;;48;0;1;
1079;Morro Bay Furniture;381 Quintana Rd;;Morro Bay;CA;"	93442";(805) 772-9740;"	";;"	35.3712732";"	-120.8481979";41:35,6;234871;234871;"	7234871";"	";"	90002324";"	 ";"	 ";"	 ";"	 ";"	NO        ";15475;SIMMONS;Serta Simmons Bedding;SSB;Los Angeles;Los Angeles_05;;;;NO;0;;0;Janet;Dechambeau;101811;Van Emmerik, Shawn (Rep SVE);Rep SVE;101570;;;;8;;4;
1085;The Sleep Shoppe;1969 Erringer Rd;;Simi Valley;CA;"	93065";(805) 583-8778;"	";www.sleepshoppe.net/mattress-brands/index.php?name=simmons;"	34.2713853";"	-118.7618264";41:35,7;505869;417353;"	7417353";"	";"	70740012";"	 ";"	 ";"	 ";"	 ";"	NO        ";15477;SIMMONS;Serta Simmons Bedding;SSB;Los Angeles;Los Angeles_01;;;;NO;0;;0;Richard;Ho;101556;Van Emmerik, Shawn (Rep SVE);Rep SVE;101570;;;;0;0;4;
1119;Furniture Outlet;740 West Main Street;;Barstow;CA;"	92311";(760) 256-2832;"	";;"	34.8969032";"	-117.0354954";41:36,3;416333;416333;"	7416333";"	";"	90002732";"	 ";"	 ";"	 ";"	 ";"	NO        ";15478;SIMMONS;Serta Simmons Bedding;SSB;Corporate;Corporate;;;;NO;0;bgchair@aol.com;0;Heather;Redman;102032;Morrissey, Heather (Rep HMO);Rep HMO;101670;;;;12;0;4;
1189;Central Furniture;26 River St;;Sanford;ME;"	04073";(207) 324-5474;"	";;"	43.4428745";"	-70.7744051";00:00,0;240457;240457;"	7240457";"	";"	70080012";"	 ";"	 ";"	 ";"	 ";"	NO        ";16398;SIMMONS;Serta Simmons Bedding;SSB;Boston;Boston_04;;;;NO;0;matt@shopcentral.com;0;Peter;Connolly;101770;Marano, Jacki (Rep JMA);Rep JMA;101558;;;;0;0;4;
1193;J Sproul Furniture;80 Main Street;;Newcastle;ME;"	04553";(207) 563-3535;"	";;"	44.0335145";"	-69.5338804";41:36,9;446482;35220;"	7300221";"	";"	90002522";"	 ";"	 ";"	 ";"	 ";"	NO        ";16400;SIMMONS;Serta Simmons Bedding;SSB;Boston;Boston_04;;;;NO;0;;0;Peter;Connolly;101770;Marano, Jacki (Rep JMA);Rep JMA;101558;;;;0;0;4;
1201;Prince's Furniture;25 Farwell Dr;;Rockland;ME;"	04841";(800) 281-3796;"	";;"	44.1676274";"	-69.1595618";07:15,3;35253;35253;"	735253";"	";"	70040003";"	 ";"	 ";"	 ";"	 ";"	NO        ";16402;SIMMONS;Serta Simmons Bedding;SSB;Boston;Boston_04;;;;NO;0;princes_inc@yahoo.com;0;Peter;Connolly;101770;Marano, Jacki (Rep JMA);Rep JMA;101558;;;;0;0;4;
1211;Allen Wayside Furniture;Rte. 16;;Conway;NH;"	03818";(603) 447-2330;"	";;"	43.9786478";"	-71.1202829";00:00,0;436487;417695;"	7417695";"	";"	70050002";"	 ";"	 ";"	 ";"	 ";"	NO        ";16406;SIMMONS;Serta Simmons Bedding;SSB;Boston;Boston_07;;;;NO;0;;0;Catherine;Addessa;101838;Marano, Jacki (Rep JMA);Rep JMA;101558;;;;0;;4;
1263;Art Van Furniture;2090 West M 32;;Gaylord;MI;"	49735";(616) 940-2070;"	";https://www.artvan.com/Furniture/Store/ArtVanCategoryDisplayView?catalogId=10051&langId=-1&storeId=10052&N=141+230+4294965766&?ICID=glblnav;"	45.0282465";"	-84.7164009";41:37,8;7183060;7183060;"	7183060";"	";"	10020000";"	 ";"	 ";"	 ";"	 ";"	yes       ";16407;SIMMONS;Store Success;West;Mid West 2;Mid West 2_11;National;Department Stores;;YES;0;;0;Susan;Ziober;100994;Pesta, Kevin (Rep PES);Rep PES;100563;;;;6;4;8;
1265;Art Van Furniture;5053 Dixie Highway;;Waterford;MI;"	48329";(248) 674-4731;"	";https://www.artvan.com/Furniture/Store/ArtVanCategoryDisplayView?catalogId=10051&langId=-1&storeId=10052&N=141+230+4294965766&?ICID=glblnav;"	42.6919968";"	-83.3897469";41:37,8;7183060;7183060;"	7183060";"	";"	10020000";"	 ";"	 ";"	 ";"	 ";"	yes       ";29516;SIMMONS;Store Success;West;Mid West 2;Mid West 2_03;National;Department Stores;;YES;0;;0;Chris;Osowski;102051;Pesta, Kevin (Rep PES);Rep PES;100563;;;;12;12;4;
1266;Art Van Furniture;4577 Miller Road;;Flint;MI;"	48507";(810) 733-3110;"	";https://www.artvan.com/Furniture/Store/ArtVanCategoryDisplayView?catalogId=10051&langId=-1&storeId=10052&N=141+230+4294965766&?ICID=glblnav;"	42.9757305";"	-83.7703214";41:37,8;7183060;7183060;"	7183060";"	";"	10020000";"	 ";"	 ";"	 ";"	 ";"	yes       ";16408;SIMMONS;Store Success;West;Mid West 2;Mid West 2_11;National;Department Stores;;YES;0;;0;Susan;Ziober;100994;Pesta, Kevin (Rep PES);Rep PES;100563;;;;24;12;2;
1267;Art Van Furniture;2660 Tittabawassee Road;;Saginaw;MI;"	48604";(989) 790-2221;"	";https://www.artvan.com/Furniture/Store/ArtVanCategoryDisplayView?catalogId=10051&langId=-1&storeId=10052&N=141+230+4294965766&?ICID=glblnav;"	43.4807817";"	-83.968144";41:37,8;661145;183060;"	7183060";"	";"	10020000";"	 ";"	 ";"	 ";"	 ";"	yes       ";16409;SIMMONS;Store Success;West;Mid West 2;Mid West 2_11;National;Department Stores;;YES;0;;0;Susan;Ziober;100994;Pesta, Kevin (Rep PES);Rep PES;100563;;;;24;12;2;
1268;Art Van Furniture;4095 East Court Street;;Burton;MI;"	48509";(810) 742-9120;"	";https://www.artvan.com/Furniture/Store/ArtVanCategoryDisplayView?catalogId=10051&langId=-1&storeId=10052&N=141+230+4294965766&?ICID=glblnav;"	43.0196056";"	-83.6312704";41:37,9;7183060;7183060;"	7183060";"	";"	10020000";"	 ";"	 ";"	 ";"	 ";"	yes       ";16410;SIMMONS;Store Success;West;Mid West 2;Mid West 2_11;National;Department Stores;;YES;0;;0;Susan;Ziober;100994;Pesta, Kevin (Rep PES);Rep PES;100563;;;;12;4;4;
1269;Art Van Furniture;4150 Wilder Road;;Bay City;MI;"	48706";(989) 667-4700;"	";https://www.artvan.com/Furniture/Store/ArtVanCategoryDisplayView?catalogId=10051&langId=-1&storeId=10052&N=141+230+4294965766&?ICID=glblnav;"	43.6227461";"	-83.8887547";41:37,9;7183060;7183060;"	7183060";"	";"	10020000";"	 ";"	 ";"	 ";"	 ";"	yes       ";25393;SIMMONS;Store Success;West;Mid West 2;Mid West 2_11;National;Department Stores;;YES;0;;0;Susan;Ziober;100994;Pesta, Kevin (Rep PES);Rep PES;100563;;;;12;12;4;
1270;Art Van Furniture;550 Ring Road;;Portage;MI;"	49024";(269) 233-3222;"	";https://www.artvan.com/Furniture/Store/ArtVanCategoryDisplayView?catalogId=10051&langId=-1&storeId=10052&N=141+230+4294965766&?ICID=glblnav;"	42.2237161";"	-85.5949461";19:44,4;183060;183060;"	7183060";"	";"	10020000";"	 ";"	 ";"	 ";"	 ";"	yes       ";25394;SIMMONS;Store Success;West;Mid West 2;Mid West 2_11;National;Department Stores;;YES;0;;0;Susan;Ziober;100994;Pesta, Kevin (Rep PES);Rep PES;100563;;;;24;0;2;
1273;Art Van Furniture;950 North West Avenue;;Jackson;MI;"	49202";(517) 784-6700;"	";https://www.artvan.com/Furniture/Store/ArtVanCategoryDisplayView?catalogId=10051&langId=-1&storeId=10052&N=141+230+4294965766&?ICID=glblnav;"	42.2611893";"	-84.4252217";41:38,0;7183060;7183060;"	7183060";"	";"	10020000";"	 ";"	 ";"	 ";"	 ";"	yes       ";25395;SIMMONS;Store Success;West;Mid West 2;Mid West 2_11;National;Department Stores;;YES;0;;0;Susan;Ziober;100994;Pesta, Kevin (Rep PES);Rep PES;100563;;;;12;12;4;
1275;Art Van Furniture;12610 Felch Street;Ste 100;Holland;MI;"	49424";(616) 786-3400;"	";https://www.artvan.com/Furniture/Store/ArtVanCategoryDisplayView?catalogId=10051&langId=-1&storeId=10052&N=141+230+4294965766&?ICID=glblnav;"	42.8177705";"	-86.0922211";41:38,0;661145;183060;"	7183060";"	";"	10020000";"	 ";"	 ";"	 ";"	 ";"	yes       ";25396;SIMMONS;Store Success;West;Mid West 2;Mid West 2_11;National;Department Stores;;YES;0;;0;Susan;Ziober;100994;Pesta, Kevin (Rep PES);Rep PES;100563;;;;24;12;2;
1276;Art Van Furniture;1775 Oak Hollow Drive;;Traverse City;MI;"	49686";(231) 932-1050;"	";https://www.artvan.com/Furniture/Store/ArtVanCategoryDisplayView?catalogId=10051&langId=-1&storeId=10052&N=141+230+4294965766&?ICID=glblnav;"	44.734047";"	-85.6117153";41:38,0;7183060;7183060;"	7183060";"	";"	10020000";"	 ";"	 ";"	 ";"	 ";"	yes       ";16411;SIMMONS;Store Success;West;Mid West 2;Mid West 2_11;National;Department Stores;;YES;0;;0;Susan;Ziober;100994;Pesta, Kevin (Rep PES);Rep PES;100563;;;;12;12;4;
1277;Art Van Furniture;630 Seminole Rd;;Muskegon;MI;"	49441";(231) 733-2141;"	";https://www.artvan.com/Furniture/Store/ArtVanCategoryDisplayView?catalogId=10051&langId=-1&storeId=10052&N=141+230+4294965766&?ICID=glblnav;"	43.1871721";"	-86.2607728";41:38,1;7183060;7183060;"	7183060";"	";"	10020000";"	 ";"	 ";"	 ";"	 ";"	yes       ";16412;SIMMONS;Store Success;West;Mid West 2;Mid West 2_11;National;Department Stores;;YES;0;;0;Susan;Ziober;100994;Pesta, Kevin (Rep PES);Rep PES;100563;;;;12;12;4;
1279;Art Van Furniture;6100 B Dr N;;Battle Creek;MI;"	49014";(269) 979-1091;"	";https://www.artvan.com/Furniture/Store/ArtVanCategoryDisplayView?catalogId=10051&langId=-1&storeId=10052&N=141+230+4294965766&?ICID=glblnav;"	42.2575581";"	-85.1748423";41:38,1;7183060;7183060;"	7183060";"	";"	10020000";"	 ";"	 ";"	 ";"	 ";"	yes       ";16413;SIMMONS;Store Success;West;Mid West 2;Mid West 2_11;National;Department Stores;;YES;0;;0;Susan;Ziober;100994;Pesta, Kevin (Rep PES);Rep PES;100563;;;;12;12;4;
1282;Art Van Furniture;4273 Alpine Avenue;;Comstock Park;MI;"	49321";(616) 784-1041;"	";https://www.artvan.com/Furniture/Store/ArtVanCategoryDisplayView?catalogId=10051&langId=-1&storeId=10052&N=141+230+4294965766&?ICID=glblnav;"	43.0413967";"	-85.6926888";41:38,1;661145;183060;"	7183060";"	";"	10020000";"	 ";"	 ";"	 ";"	 ";"	yes       ";29491;SIMMONS;Store Success;West;Mid West 2;Mid West 2_11;National;Department Stores;;YES;0;;0;Susan;Ziober;100994;Pesta, Kevin (Rep PES);Rep PES;100563;;;;24;0;2;
1374;Mattress and Futon Outlet;1755 Ford Ln;;Saint Charles;MO;"	63303";(636) 947-4900;"	";www.mattressandfutonoutlet.com/;"	38.7649832";"	-90.5251445";07:15,3;416343;416343;"	7416343";"	";"	90002733";"	 ";"	 ";"	 ";"	 ";"	NO        ";16414;SIMMONS;Serta Simmons Bedding;SSB;Chicago;Chicago_00;;;;NO;0;furnituretoday@aol.com;0;Allie;Schaefer;101795;Heigl, Jeff (REP JEH);REP JEH;102027;;;;0;0;4;
1402;Mattress and Futon Outlet;111 N US Highway 67;;Florissant;MO;"	63031";(314) 830-1511;"	";www.mattressandfutonoutlet.com/;"	38.7955324";"	-90.3408956";07:15,4;416343;416343;"	7416343";"	";"	90002733";"	 ";"	 ";"	 ";"	 ";"	NO        ";16415;SIMMONS;Serta Simmons Bedding;SSB;Chicago;Chicago_00;;;;NO;0;;0;Allie;Schaefer;101795;Heigl, Jeff (REP JEH);REP JEH;102027;;;;0;0;4;
1404;Mattress and Futon Outlet;10626 Baptist Church Rd;;Saint Louis;MO;"	63128";(314) 843-2610;"	";www.mattressandfutonoutlet.com/;"	38.5229414";"	-90.3615281";07:15,4;416343;416343;"	7416343";"	";"	90002733";"	 ";"	 ";"	 ";"	 ";"	NO        ";16416;SIMMONS;Serta Simmons Bedding;SSB;Chicago;Chicago_00;;;;NO;0;;0;Allie;Schaefer;101795;Heigl, Jeff (REP JEH);REP JEH;102027;;;;0;;4;
1406;Mattress and Futon Outlet;15438 Manchester Rd;;Ballwin;MO;"	63011";(636) 230-3600;"	";www.mattressandfutonoutlet.com/;"	38.5927899";"	-90.5648002";07:15,4;416343;416343;"	7416343";"	";"	90002733";"	 ";"	 ";"	 ";"	 ";"	NO        ";16417;SIMMONS;Serta Simmons Bedding;SSB;Chicago;Chicago_00;;;;NO;0;;0;Allie;Schaefer;101795;Heigl, Jeff (REP JEH);REP JEH;102027;;;;0;0;4;
1420;The Mattress Store And More;935 N Baldwin Ave;;Marion;IN;"	46952";(765) 651-0233;"	";;"	40.5685239";"	-85.6772983";00:00,0;417753;417753;"	7417754";"	";"	90002763";"	 ";"	 ";"	 ";"	 ";"	NO        ";10105;SIMMONS;Serta Simmons Bedding;SSB;Corporate;Corporate;;;;NO;0;mattress9351@sbcglobal.net;1;Heather;Redman;102032;Morrissey, Heather (Rep HMO);Rep HMO;101670;;;;8;;4;
1436;Weylands Furniture and Gifts;511 East Morgan Street;;Boonville;MO;"	65233";(660) 882-6156;"	";;"	38.9766436";"	-92.7436113";41:38,3;448035;213354;"	7213354";"	";"	90002241";"	 ";"	 ";"	 ";"	 ";"	NO        ";16419;SIMMONS;Serta Simmons Bedding;SSB;Houston;Houston_06;;;;NO;0;jnwey@socket.net;0;Aaron;Reigle;102028;Morgan, Mickey (Rep MMR);Rep MMR;101757;;;;0;0;8;
1546;Hollywood Furniture  Hardware;2461 Chelsea Ave;;Memphis;TN;"	38108";(901) 323-3860;"	";;"	35.1742632";"	-89.9752359";41:38,7;6015;6015;"	76015";"	";"	90004517";"	 ";"	 ";"	 ";"	 ";"	NO        ";16421;SIMMONS;Serta Simmons Bedding;SSB;Corporate;Corporate;;;;NO;0;bart@hollywoodfurniture.net;0;Alicia;Lomber;102091;Morrissey, Heather (Rep HMO);Rep HMO;101670;;;;8;0;8;
1550;New England Mattress  Futon;136 Worcester St;;Natick;MA;"	01760";(508) 653-4900;"	";www.newenglandmattressandfuton.com;"	42.30341";"	-71.3315479";41:38,7;183516;183516;"	7301529";"	";"	90002555";"	 ";"	 ";"	 ";"	 ";"	NO        ";16422;SIMMONS;Serta Simmons Bedding;SSB;Corporate;Corporate;;;;NO;0;;0;Alicia;Lomber;102091;Morrissey, Heather (Rep HMO);Rep HMO;101670;;;;8;0;4;
1658;Mattress Firm;2827 W. Peoria Ave Suite 112;STE 112;Phoenix;AZ;"	85029";(602) 371-8700;"	029116";www.mattressfirm.com/simmons-mattresses-0-c16/;"	33.5812773";"	-112.1237772";44:08,5;227263;446630;"	7446630";"	";"	10060000";"	 ";"	 ";"	 ";"	 ";"	NO        ";15203;SIMMONS;Store Success;West;South West;South West_11;;;Black Diamond Preferred;YES;0;;0;Rene;Nuno;101655;Laney, Mike  (Rep LAN);Rep LAN;100345;;;;12;4;4;
1661;Mattress Firm;4933 E. Ray Rd;;Phoenix;AZ;"	85044";(480) 940-4999;"	029145";www.mattressfirm.com/simmons-mattresses-0-c16/;"	33.3186522";"	-111.9766189";44:09,2;227263;446630;"	7446630";"	";"	10060000";"	 ";"	 ";"	 ";"	 ";"	NO        ";10115;SIMMONS;Store Success;West;South West;South West_11;;;Black Diamond Preferred;YES;0;;0;Rene;Nuno;101655;Laney, Mike  (Rep LAN);Rep LAN;100345;;;;12;4;4;
1670;SackTime;10640 N 71st Pl;;Scottsdale;AZ;"	85254";(480) 948-4560;"	";;"	33.5839559";"	-111.9280229";41:39,2;197474;197474;"	7197474";"	";"	90002204";"	 ";"	 ";"	 ";"	 ";"	NO        ";15220;SIMMONS;Serta Simmons Bedding;SSB;Phoenix;Phoenix_07;;;;NO;0;;0;Michael;Romeo;101109;Stephens, Mason (Rep STP);Rep STP;100992;;;;24;0;4;
1674;Carol's Chair Boutique  Furn Gallery;108 Main St;;Sterling;CO;"	80751";(970) 522-4532;"	";;"	40.623452";"	-103.2064879";41:39,2;188508;188508;"	7188508";"	";"	70550001";"	 ";"	 ";"	 ";"	 ";"	NO        ";16425;SIMMONS;Serta Simmons Bedding;SSB;Phoenix;Phoenix_01;;;;NO;0;;0;Dale;Anderson;101831;Stephens, Mason (Rep STP);Rep STP;100992;;;;24;;4;
1678;Liddiards Home Furnishings;2502 North 400 East;;Tooele;UT;"	84074";(435) 882-0964;"	";www.liddiardhf.com;"	40.5748493";"	-112.2920111";07:15,5;504951;504951;"	7504951";"	";"	10150000";"	 ";"	 ";"	 ";"	 ";"	yes       ";16426;SIMMONS;Serta Simmons Bedding;SSB;Corporate;Corporate;;;;NO;0;;0;Jacob ;Bell;101486;Mersbach, Tom (REP TME);REP TME;101569;;;;4;4;4;
1680;Cazin's;800 Front Street;;Evanston;WY;"	82930";(307) 789-3090;"	";;"	41.2674784";"	-110.963235";12:17,9;417414;417414;"	7417414";"	";"	90002754";"	 ";"	 ";"	 ";"	 ";"	yes       ";16427;SIMMONS;Simmons Bedding;Simmons;Simmons West;West 1;;;;NO;0;;0;Brad;Searle;101643;Mersbach, Tom (REP TME);REP TME;101569;;;;0;0;4;
1683;Fisher Home Furnishings;2175 North Main St.;;North Logan;UT;"	84341";(435) 753-1018;"	";;"	41.771926";"	-111.835338";41:39,3;419454;419454;"	7419454";"	";"	70740070";"	 ";"	 ";"	 ";"	 ";"	yes       ";16428;SIMMONS;Simmons Bedding;Simmons;Simmons West;West 1;;;;NO;0;;0;Brad;Searle;101643;Mersbach, Tom (REP TME);REP TME;101569;;;;4;4;4;
1684;Mountain Comfort Furnishings;507 Summit Blvd. Ste. B;P.O. Box 767;Frisco;CO;"	80443";(970) 668-3661;"	";www.mountaincomfortfrisco.com;"	39.5826676";"	-106.0936742";00:00,0;166959;166959;"	7166959";"	";"	70080528";"	 ";"	 ";"	 ";"	 ";"	NO        ";25400;SIMMONS;Serta Simmons Bedding;SSB;Phoenix;Phoenix_05;;;;NO;0;;0;Matt;Jones;101733;Stephens, Mason (Rep STP);Rep STP;100992;;;;48;0;4;
1687;Mountain Timber Furnishings;535 Zerex St.;P.O. Box 2019;Fraser;CO;"	80442";(970) 726-4444;"	";mountaintimber.com;"	39.9424244";"	-105.8117174";41:39,3;231159;231159;"	7231159";"	";"	90002305";"	 ";"	 ";"	 ";"	 ";"	NO        ";16429;SIMMONS;Serta Simmons Bedding;SSB;Corporate;Corporate;;;;NO;0;;0;Heather;Redman;102032;Morrissey, Heather (Rep HMO);Rep HMO;101670;;;;12;0;4;
1689;Linda's Furniture;3330 Highland Dr;;Salt Lake City;UT;"	84106";(801) 487-3992;"	";;"	40.6990543";"	-111.8509358";41:39,4;176890;176890;"	7443018";"	";"	70740070";"	 ";"	 ";"	 ";"	 ";"	yes       ";25402;SIMMONS;Simmons Bedding;Simmons;Simmons West;West 1;;;;NO;0;;0;Brad;Searle;101643;Mersbach, Tom (REP TME);REP TME;101569;;;;0;0;4;
1717;Sleep Center;1830 W 23rd St;;Panama City;FL;"	32405";(850) 785-0910;"	";;"	30.1903812";"	-85.6893989";41:39,4;245514;245514;"	7245514";"	";"	70080297";"	 ";"	 ";"	 ";"	 ";"	NO        ";25403;SIMMONS;Serta Simmons Bedding;SSB;Nashville;Nashville_01;;;;NO;0;bedking4@comcast.net;0;Tracy;Calamas;101786;Webb, Dennis (Rep WEB);Rep WEB;101189;;;;1;0;4;
1719;Sleep Center;737-A Beal Pkwy NW;;Ft. Walton Beach;FL;"	32547";(850) 314-9906;"	";;"	30.4392404";"	-86.6380589";41:39,4;253798;253798;"	7253798";"	";"	90002436";"	 ";"	 ";"	 ";"	 ";"	NO        ";16430;SIMMONS;Serta Simmons Bedding;SSB;Nashville;Nashville_01;;;;NO;0;;0;Tracy;Calamas;101786;Webb, Dennis (Rep WEB);Rep WEB;101189;;;;1;0;4;
1729;Llyod's Furniture;104 3rd St NW;;Bemidji;MN;"	56601";(218) 751-3769;"	";;"	47.4703174";"	-94.8800183";41:39,5;18175;18175;"	718175";"	";"	90002178";"	 ";"	 ";"	 ";"	 ";"	NO        ";25404;SIMMONS;Serta Simmons Bedding;SSB;Minneapolis;Minneapolis_02;;;;NO;0;;0;Jeffrey;Havrilla;101529;McKittrick, Matt (Rep MMC);Rep MMC;101759;;;;0;;4;
1760;Crane's Mattress Superstore;1922 Tiffin Ave;;Findlay;OH;"	45840";(419) 422-8995;"	";www.cranessleepshoppe.com;"	41.0548024";"	-83.6104583";00:00,0;7258706;7258706;"	7258706";"	";"	70080250";"	 ";"	 ";"	 ";"	 ";"	NO        ";16432;SIMMONS;Store Success;West;Mid West 2;Mid West 2_01;;;;YES;0;cranessleep@aol.com;0;Austin;Evans;102129;Gorski, Kenneth (REP KGO);REP KGO;101639;;;;12;12;4;
1772;Mattress Place;616 Stevens Avenue;;Solana Beach;CA;"	92075";(858) 259-6994;"	";;"	32.9886596";"	-117.2602959";07:15,6;421475;421475;"	7421475";"	";"	90002855";"	 ";"	 ";"	 ";"	 ";"	NO        ";15481;SIMMONS;Serta Simmons Bedding;SSB;Corporate;Corporate;;;;NO;0;;0;Heather;Redman;102032;Morrissey, Heather (Rep HMO);Rep HMO;101670;;;;12;0;4;
1773;Al Davis FurnitureMattress World;1601 University Avenue;;San Diego;CA;"	92103";(619) 260-8000;"	";www.sandiegobeds.com;"	32.7482339";"	-117.1490681";12:18,0;244813;244813;"	7244813";"	";"	90002373";"	 ";"	 ";"	 ";"	 ";"	NO        ";15482;SIMMONS;Serta Simmons Bedding;SSB;Los Angeles;Los Angeles_00;;;;NO;0;;0;Melissa;Hernando;101887;Van Emmerik, Shawn (Rep SVE);Rep SVE;101570;;;;8;0;4;
1786;Furniture Depot 2;7551 Broadway;;Lemon Grove;CA;"	91945";(619) 469-9945;"	";;"	32.7423255";"	-117.035538";41:39,7;421526;421526;"	7421526";"	";"	90002861";"	 ";"	 ";"	 ";"	 ";"	NO        ";15483;SIMMONS;Serta Simmons Bedding;SSB;Los Angeles;Los Angeles_00;;;;NO;0;;0;Melissa;Hernando;101887;Van Emmerik, Shawn (Rep SVE);Rep SVE;101570;;;;8;0;4;
1809;American Furniture Warehouse;1700 S Abilene St.;;Aurora;CO;"	80012";(303) 368-8555;"	";www.afwonline.com;"	39.6854116";"	-104.8265483";07:15,6;79037;79037;"	779037";"	";"	50020000";"	 ";"	 ";"	 ";"	 ";"	NO        ";16434;SIMMONS;Store Success;West;South West;South West_07;;;;YES;0;;0;Jerry;Clausman;100367;Applegate, Doug (Rep APP);Rep APP;100348;;;;48;0;1;
1812;American Furniture Warehouse;5390 S Wadsworth Blvd;;Littleton;CO;"	80123";(303) 933-3975;"	";www.jakejabs.com;"	39.6189615";"	-105.0909791";;185223;79037;"	779037";"	";"	50020000";"	 ";"	 ";"	 ";"	 ";"	NO        ";25406;SIMMONS;Store Success;West;South West;South West_07;;;;YES;0;;0;Jerry;Clausman;100367;Applegate, Doug (Rep APP);Rep APP;100348;;;;48;0;1;
1813;American Furniture Warehouse;2805 N Chestnut St;;Colorado Springs;CO;"	80907";(719) 633-4220;"	";www.jakejabs.com;"	38.8718273";"	-104.8351783";;185223;79037;"	779037";"	";"	50020000";"	 ";"	 ";"	 ";"	 ";"	NO        ";16435;SIMMONS;Store Success;West;South West;South West_07;;;;YES;0;;0;Jerry;Clausman;100367;Applegate, Doug (Rep APP);Rep APP;100348;;;;48;0;1;
1815;American Furniture Warehouse;4711 Dillon Dr;;Pueblo;CO;"	81008";(719) 542-5169;"	";www.jakejabs.com;"	38.3214548";"	-104.613803";;779037;779037;"	779037";"	";"	50020000";"	 ";"	 ";"	 ";"	 ";"	NO        ";16436;SIMMONS;Store Success;West;South West;South West_07;;;;YES;0;;0;Jerry;Clausman;100367;Applegate, Doug (Rep APP);Rep APP;100348;;;;48;0;1;
1820;American Furniture Warehouse;625 SW Frontage Rd;;Fort Collins;CO;"	80524";(970) 221-1981;"	";www.jakejabs.com;"	40.5793479";"	-105.003995";;221408;79037;"	779037";"	";"	50020000";"	 ";"	 ";"	 ";"	 ";"	NO        ";25407;SIMMONS;Store Success;West;South West;South West_07;;;;YES;0;;0;Jerry;Clausman;100367;Applegate, Doug (Rep APP);Rep APP;100348;;;;48;0;1;
1824;American Furniture Warehouse;3200 S Glen Ave.;;Glenwood Springs;CO;"	81601";(970) 928-9422;"	";www.jakejabs.com;"	39.519085";"	-107.318309";;79037;79037;"	779037";"	";"	50020000";"	 ";"	 ";"	 ";"	 ";"	NO        ";16437;SIMMONS;Store Success;West;South West;South West_07;;;;YES;0;;0;Jerry;Clausman;100367;Applegate, Doug (Rep APP);Rep APP;100348;;;;48;4;1;
1856;Slifer Designs;216 Main Street Suite C-100;;Edwards;CO;"	81632";(970) 926-8200;"	";www.sliferdesigns.com;"	39.642388";"	-106.5905609";41:39,8;428031;428031;"	7428031";"	";"	90002942";"	 ";"	 ";"	 ";"	 ";"	NO        ";16438;SIMMONS;Serta Simmons Bedding;SSB;Corporate;Corporate;;;;NO;0;;0;Heather;Redman;102032;Morrissey, Heather (Rep HMO);Rep HMO;101670;;;;8;0;4;
1880;Elder Beerman;2121 N Monroe St;;Monroe;MI;"	48161";(734) 241-0411;"	";www.elder-beerman.com/shop/bed-bath/mattresses/facet-brand_Beautyrest/;"	41.9471834";"	-83.3877557";41:39,9;7302008;7302008;"	7302008";"	";"	50050000";"	 ";"	 ";"	 ";"	 ";"	yes       ";16439;SIMMONS;Store Success;West;Mid West 2;Mid West 2_03;;;;YES;0;;0;Chris;Osowski;102051;Ritchey, Roger (Rep RCY);Rep RCY;100164;;;;12;4;4;
1883;Creative Concepts;31874 Roxana Rd.;Rt 26 and Rt 17;Ocean View;DE;"	19970";(302) 539-6989;"	";;"	38.5504374";"	-75.1322549";41:39,9;35204;35204;"	7300220";"	";"	90002521";"	 ";"	 ";"	 ";"	 ";"	yes       ";16440;SIMMONS;Serta Simmons Bedding;SSB;Corporate;Corporate;;;;NO;0;;0;Daniel;Reppe;101633;Mersbach, Tom (REP TME);REP TME;101569;;;;12;;4;
1887;Creative Concepts;97 Tulip Dr.;Rt 1 and Rt 9;Lewes;DE;"	19945";(302) 645-6200;"	";;"	38.7497166";"	-75.1752252";41:40,0;35204;35204;"	7300220";"	";"	90002521";"	 ";"	 ";"	 ";"	 ";"	yes       ";16441;SIMMONS;Serta Simmons Bedding;SSB;Corporate;Corporate;;;;NO;0;;0;Daniel;Reppe;101633;Mersbach, Tom (REP TME);REP TME;101569;;;;12;;4;
1919;Harris Furniture;74 Dover Rd;;Chichester;NH;"	03258";(603) 798-5607;"	";www.harrisfamilyfurniture.com;"	43.238996";"	-71.3932773";;302253;222827;"	7222802";"	";"	90002271";"	 ";"	 ";"	 ";"	 ";"	NO        ";16442;SIMMONS;Serta Simmons Bedding;SSB;Boston;Boston_02;;;;NO;0;;0;Peter;O'Brien;101768;Marano, Jacki (Rep JMA);Rep JMA;101558;;;;0;;4;
1920;Harris Furniture;460 Union Ave;;Laconia;NH;"	03246";(603) 524-7447;"	";www.harrisfamilyfurniture.com;"	43.5382322";"	-71.4651895";;302253;222827;"	7222802";"	";"	90002271";"	 ";"	 ";"	 ";"	 ";"	NO        ";16443;SIMMONS;Serta Simmons Bedding;SSB;Boston;Boston_02;;;;NO;0;;0;Peter;O'Brien;101768;Marano, Jacki (Rep JMA);Rep JMA;101558;;;;0;;4;
1921;Harris Furniture;Rte 25 Tenney Mtn Hwy;;Plymouth;NH;"	03264";(603) 536-1422;"	";www.harrisfamilyfurniture.com;"	43.7570196";"	-71.6881528";;302253;222827;"	7222802";"	";"	90002271";"	 ";"	 ";"	 ";"	 ";"	NO        ";16444;SIMMONS;Serta Simmons Bedding;SSB;Boston;Boston_02;;;;NO;0;;0;Peter;O'Brien;101768;Marano, Jacki (Rep JMA);Rep JMA;101558;;;;0;;4;
1964;Sleeping Giant;1901 Industrial Blvd;;Abilene;TX;"	79602";(325) 691-9700;"	";sleepinggianttexas.com;"	32.4013749";"	-99.7462263";41:41,3;7420183;7420183;"	7420183";"	";"	90002827";"	 ";"	 ";"	 ";"	 ";"	yes       ";16446;SIMMONS;Simmons Bedding;Simmons;Simmons West;West 2;;;;NO;0;tmbeal@hotmail.com;0;Weston;King;102058;Mersbach, Tom (REP TME);REP TME;101569;;;;6;0;4;
1965;Taylor Furniture;11000 Hwy 63;;Moss Point;MS;"	39562";(228) 475-6364;"	";;"	30.4978625";"	-88.5373572";;418937;418937;"	7418937";"	";"	90002793";"	 ";"	 ";"	 ";"	 ";"	NO        ";16447;SIMMONS;Serta Simmons Bedding;SSB;Nashville;Nashville_00;;;;NO;0;taylorfurniture@cableone.net;0;Jose;Budde;100902;Webb, Dennis (Rep WEB);Rep WEB;101189;;;;8;0;4;
1990;Davis Furniture;406 N 2nd St;;Lamesa;TX;"	79331";(806) 872-3224;"	";;"	32.7342666";"	-101.9528266";41:41,3;4894;4894;"	74894";"	";"	90004165";"	 ";"	 ";"	 ";"	 ";"	yes       ";16448;SIMMONS;Serta Simmons Bedding;SSB;Corporate;Corporate;;;;NO;0;dfc1924@pics.net;0;Weston;King;102058;Mersbach, Tom (REP TME);REP TME;101569;;;;8;;4;
1991;Decor of Carlsbad;815 W Mermod St;;Carlsbad;NM;"	88220";(505) 885-8878;"	";;"	32.4200477";"	-104.2364219";41:41,3;222653;222653;"	7222653";"	";"	90002269";"	 ";"	 ";"	 ";"	 ";"	yes       ";16449;SIMMONS;Serta Simmons Bedding;SSB;Phoenix;Phoenix_04;;;;NO;0;decor@pccnm.com;0;Michael;Jones;101559;Gomez, Jack (Rep GOM);Rep GOM;101531;;;;24;;4;
2002;Globe Furniture;1520 Adams Avenue;;La Grande;OR;"	97850";(541) 963-4144;"	";;"	45.3254471";"	-118.0899573";41:41,4;7217314;7217314;"	7217314";"	";"	70080647";"	 ";"	 ";"	 ";"	 ";"	NO        ";16450;SIMMONS;Serta Simmons Bedding;SSB;Seattle;Seattle_06;;;;NO;0;globef@eoni.com;0;Alan;Pehrson;100817;Ramsden, Marilyn (Rep MRM);Rep MRM;101761;;;;12;4;4;
2010;Lee's Furniture;459 Overland Ave;;Burley;ID;"	83318";(208) 878-4433;"	";;"	42.5476251";"	-113.7928797";41:41,4;419400;419400;"	7419400";"	";"	70740070";"	 ";"	 ";"	 ";"	 ";"	yes       ";16451;SIMMONS;Simmons Bedding;Simmons;Simmons West;West 1;;;;NO;0;leefurn@pmt.org;0;Brad;Searle;101643;Mersbach, Tom (REP TME);REP TME;101569;;;;8;0;4;
2012;Mosier's;101 E Main St;;John Day;OR;"	97845";(541) 575-0649;"	";;"	44.4163233";"	-118.9524346";41:41,4;54725;54725;"	754725";"	";"	90004311";"	 ";"	 ";"	 ";"	 ";"	NO        ";16452;SIMMONS;Serta Simmons Bedding;SSB;Corporate;Corporate;;;;NO;0;mosiers@ortelco.net;0;Heather;Redman;102032;Morrissey, Heather (Rep HMO);Rep HMO;101670;;;;8;0;4;
2073;FurnitureLand;38529 Sussex Hwy;;Delmar;DE;"	19940";(302) 846-0777;"	";;"	38.4610108";"	-75.557126";00:00,0;419662;419662;"	7419662";"	";"	90002809";"	 ";"	 ";"	 ";"	 ";"	yes       ";16458;SIMMONS;Serta Simmons Bedding;SSB;Corporate;Corporate;;;;NO;0;;0;Daniel;Reppe;101633;Reppe, Daniel (Rep DRE);Rep DRE;101633;;;;12;;4;
2078;Carter FurnitureUrbana;410 N Vine St;;Urbana;IL;"	61802";(217) 367-4066;"	";;"	40.1152909";"	-88.2042433";41:41,6;727143;727143;"	727143";"	";"	90002495";"	 ";"	 ";"	 ";"	 ";"	NO        ";16459;SIMMONS;Store Success;West;Mid West 1;Mid West 1_11;;;;YES;0;allencarter@cartersfurniture.com;0;Scott ;Gustafson;101660;Hayes, Scott (REP SHH);REP SHH;101715;;;;12;4;4;
2087;Just BedsSpringfield;3120 Montvale Dr;;Springfield;IL;"	62704";(217) 698-6179;"	";www.justbedsinc.com;"	39.7653655";"	-89.6937589";41:41,7;7428140;7428140;"	7428140";"	";"	70080382";"	 ";"	 ";"	 ";"	 ";"	NO        ";16462;SIMMONS;Store Success;East;South East 3;South East 3_11;;;;YES;0;;0;Theresa;Mikoff;102069;Hayes, Scott (REP SHH);REP SHH;101715;;;;12;4;4;
2091;Factory Mattress Sales;2020 Northwest Boulevard;;Newton;NC;"	28658";(828) 465-0793;"	";;"	35.6827733";"	-81.2297024";41:41,7;225375;225375;"	7225375";"	";"	90002279";"	 ";"	 ";"	 ";"	 ";"	NO        ";16463;SIMMONS;Serta Simmons Bedding;SSB;Atlanta;Atlanta_04;;;;NO;0;;0;Michael;Herndon;101779;Lane, Bill (Rep BLN);Rep BLN;101753;;;;10;0;4;
2127;Conlin's Furniture;318 S Haynes Ave.;;Miles City;MT;"	59301";(406) 232-5410;"	";;"	46.4054416";"	-105.8226056";;161562;161562;"	7161562";"	";"	70740065";"	 ";"	 ";"	 ";"	 ";"	NO        ";16465;SIMMONS;Serta Simmons Bedding;SSB;Seattle;Seattle_07;;;;NO;0;;0;Brycen;McCurry;102031;McCurry, Brycen (Rep BMC);Rep BMC;102031;;;;0;;4;
2132;Gallatin Valley Furniture Carpet One;923 N 7th Ave;;Bozeman;MT;"	59715";(406) 587-5423;"	";www.GVFC1.com;"	45.6891877";"	-111.0469573";00:00,0;12104;12104;"	7300119";"	";"	90002513";"	 ";"	 ";"	 ";"	 ";"	NO        ";16469;SIMMONS;Serta Simmons Bedding;SSB;Seattle;Seattle_01;;;;NO;0;;0;Joe;Lacroix;101547;Ramsden, Marilyn (Rep MRM);Rep MRM;101761;;;;0;0;4;
2134;Harbor Light Furniture PFD;415 Main Street;;Polson;MT;"	59860";(406) 883-4177;"	";;"	47.69183";"	-114.163001";00:00,0;215210;215210;"	7215210";"	";"	90002252";"	 ";"	 ";"	 ";"	 ";"	NO        ";16470;SIMMONS;Serta Simmons Bedding;SSB;Seattle;Seattle_01;;;;NO;0;;0;Joe;Lacroix;101547;Ramsden, Marilyn (Rep MRM);Rep MRM;101761;;;;0;0;4;
2146;Twin City Furniture;110 McKinley Avenue;112;Kellogg;ID;"	83837";(208) 786-9351;"	";;"	47.5354391";"	-116.1232158";00:00,0;215418;215418;"	7215418";"	";"	90002253";"	 ";"	 ";"	 ";"	 ";"	NO        ";16471;SIMMONS;Serta Simmons Bedding;SSB;Corporate;Corporate;;;;NO;1;mgpierce@msn.com;0;Alicia;Lomber;102091;Morrissey, Heather (Rep HMO);Rep HMO;101670;;;;0;0;4;
2158;Mainly Mattresses;1590 Roanoke Street;;Christiansburg;VA;"	24073";(540) 382-2777;"	";;"	37.1327833";"	-80.3775074";00:00,0;257352;257352;"	7257352";"	";"	90002471";"	 ";"	 ";"	 ";"	 ";"	yes       ";16472;SIMMONS;Serta Simmons Bedding;SSB;Corporate;Corporate;;;;NO;0;;0;Rachel;Bookbinder;101637;Mersbach, Tom (REP TME);REP TME;101569;;;;8;;4;
2223;Mattress Firm;19620 Katy Freeway;;Katy;TX;"	77450";(281) 599-9687;"	001115";www.mattressfirm.com/simmons-mattresses-0-c16/;"	29.7850571";"	-95.7560375";44:14,5;446630;446630;"	7446630";"	";"	10060000";"	 ";"	 ";"	 ";"	 ";"	NO        ";25416;SIMMONS;Store Success;West;South Central;South Central_07;;;Black Diamond Preferred;YES;0;;0;Jackie;Brodecki;101882;Laney, Mike  (Rep LAN);Rep LAN;100345;;;;12;4;4;
2289;Tarheel Furniture;151 N Reilly Rd;;Fayetteville;NC;"	28303";(910) 864-5660;"	";;"	35.0844228";"	-79.0108699";41:42,1;420613;420613;"	7420613";"	";"	90002835";"	 ";"	 ";"	 ";"	 ";"	NO        ";25420;SIMMONS;Serta Simmons Bedding;SSB;Atlanta;Atlanta_06;;;;NO;0;;0;Rusty;Evans;101781;Lane, Bill (Rep BLN);Rep BLN;101753;;;;0;0;4;
2393;Jordan's;100 Stockwell Dr;;Avon;MA;"	02322";(508) 828-4000;"	";www.jordans.com;"	42.1344888";"	-71.0666625";41:42,1;422913;422913;"	7422913";"	";"	50120000";"	 ";"	 ";"	 ";"	 ";"	NO        ";16485;SIMMONS;Serta Simmons Bedding;SSB;Corporate;Furniture;;;Black Diamond Preferred;NO;0;lsilva@jordans.com;0;Joanne;Stearns;101188;Stearns, Joanne (Rep STR);Rep STR;101188;;;;0;0;4;
2394;Jordan's;50 Walkers Brook Dr;;Reading;MA;"	01867";(781) 944-9090;"	";www.jordans.com;"	42.5208034";"	-71.0910894";41:42,2;422915;422913;"	7422913";"	";"	50120000";"	 ";"	 ";"	 ";"	 ";"	NO        ";16486;SIMMONS;Serta Simmons Bedding;SSB;Corporate;Furniture;;;Black Diamond Preferred;NO;0;;0;Joanne;Stearns;101188;Stearns, Joanne (Rep STR);Rep STR;101188;;;;0;0;4;
2395;Jordan's;327 Daniel Webster Hwy;;Nashua;NH;"	03060";(603) 888-8989;"	";www.jordans.com;"	42.7009118";"	-71.4414259";41:42,2;422918;422913;"	7422913";"	";"	50120000";"	 ";"	 ";"	 ";"	 ";"	NO        ";16487;SIMMONS;Serta Simmons Bedding;SSB;Corporate;Furniture;;;Black Diamond Preferred;NO;0;;0;Joanne;Stearns;101188;Stearns, Joanne (Rep STR);Rep STR;101188;;;;0;0;4;
2396;Jordan's;1 Underprice Way Rte 9;;Natick;MA;"	01760";(508) 424-0088;"	";www.jordans.com;"	42.294961";"	-71.397437";41:42,2;450229;422913;"	7422913";"	";"	50120000";"	 ";"	 ";"	 ";"	 ";"	NO        ";16488;SIMMONS;Serta Simmons Bedding;SSB;Corporate;Furniture;;;Black Diamond Preferred;NO;0;;0;Joanne;Stearns;101188;Stearns, Joanne (Rep STR);Rep STR;101188;;;;0;0;4;
2406;Mattress Firm;12558 Totem Lake Blvd NE; A;Kirkland;WA;"	98034";(425) 823-1346;"	508042";www.mattressfirm.com/simmons-mattresses-0-c16/;"	47.7123201";"	-122.1808875";41:42,3;207281;446630;"	7446630";"	";"	10060000";"	 ";"	 ";"	 ";"	 ";"	NO        ";25424;SIMMONS;Store Success;West;North West;North West_08;;;Black Diamond Preferred;YES;0;;0;Lucas;Huibregtse;102041;Laney, Mike  (Rep LAN);Rep LAN;100345;;;;24;12;2;
2457;The Bed Room;6300 Atlanta Highway;;Montgomery;AL;"	36117";(334) 271-4500;"	";;"	32.3816422";"	-86.1887862";41:43,8;239895;239895;"	7455246";"	";"	90004108";"	 ";"	 ";"	 ";"	 ";"	NO        ";14793;SIMMONS;Serta Simmons Bedding;SSB;Corporate;Corporate;;;;NO;0;;0;Alicia;Lomber;102091;Morrissey, Heather (Rep HMO);Rep HMO;101670;;;;12;0;4;
2462;Granville Home Furnishings;3490 Wetumpka Highway;;Montgomery;AL;"	36110";(334) 279-3101;"	";;"	32.4415576";"	-86.2150454";41:43,8;411055;411055;"	7411055";"	";"	90002640";"	 ";"	 ";"	 ";"	 ";"	NO        ";14794;SIMMONS;Serta Simmons Bedding;SSB;Nashville;Nashville_01;;;;NO;0;;0;Tracy;Calamas;101786;Webb, Dennis (Rep WEB);Rep WEB;101189;;;;12;;4;
2465;Grand Home Furnishings;1810 Seminole Trl;;Charlottesville;VA;"	22901";(434) 974-6480;"	";http://www.grandhomefurnishings.com/Mattresses;"	38.085918";"	-78.4713503";41:43,9;7300501;7300501;"	7300501";"	";"	90002538";"	 ";"	 ";"	 ";"	 ";"	yes       ";16489;SIMMONS;Store Success;East;North East 2;North East 2_07;;;Black Diamond Preferred;YES;0;;0;Lee;Martin;101621;Bookbinder, Rachel (Rep RBO);Rep RBO;101637;;;;12;0;4;
2466;Grand Home Furnishings;One South Main St.;;Lexington;VA;"	24450";(540) 463-3121;"	";http://www.grandhomefurnishings.com/Mattresses;"	37.7850654";"	-79.4422785";41:43,9;446984;78047;"	7300501";"	";"	90002538";"	 ";"	 ";"	 ";"	 ";"	yes       ";16490;SIMMONS;Store Success;East;North East 2;North East 2_07;;;Black Diamond Preferred;YES;0;;0;Lee;Martin;101621;Bookbinder, Rachel (Rep RBO);Rep RBO;101637;;;;12;12;4;
2467;Grand Home Furnishings;4235 Electric Rd.;;Roanoke;VA;"	24014";(540) 774-7004;"	";http://www.grandhomefurnishings.com/Mattresses;"	37.227118";"	-79.9781103";41:43,9;446984;78047;"	7300501";"	";"	90002538";"	 ";"	 ";"	 ";"	 ";"	yes       ";16491;SIMMONS;Store Success;East;North East 2;North East 2_07;;;Black Diamond Preferred;YES;0;;0;Lee;Martin;101621;Bookbinder, Rachel (Rep RBO);Rep RBO;101637;;;;12;0;4;
2469;Grand Home Furnishings;436 Tiffany Dr.;;Waynesboro;VA;"	22980";(540) 942-4119;"	";http://www.grandhomefurnishings.com/Mattresses;"	38.0685894";"	-78.9311014";41:43,9;7300501;7300501;"	7300501";"	";"	90002538";"	 ";"	 ";"	 ";"	 ";"	yes       ";16492;SIMMONS;Store Success;East;North East 2;North East 2_07;;;Black Diamond Preferred;YES;0;;0;Lee;Martin;101621;Bookbinder, Rachel (Rep RBO);Rep RBO;101637;;;;12;12;4;
2473;Grand Home Furnishings;1829 S Loudoun St;;Winchester;VA;"	22601";(540) 662-0912;"	";http://www.grandhomefurnishings.com/Mattresses;"	39.1670346";"	-78.1725482";41:43,9;7300501;7300501;"	7300501";"	";"	90002538";"	 ";"	 ";"	 ";"	 ";"	yes       ";16493;SIMMONS;Store Success;East;North East 2;North East 2_03;;;Black Diamond Preferred;YES;0;;0;Devin;Edmonds;101592;Bookbinder, Rachel (Rep RBO);Rep RBO;101637;;;;12;12;4;
2474;Grand Home Furnishings;220 Laurel St;;Christiansburg;VA;"	24073";(540) 381-4000;"	";http://www.grandhomefurnishings.com/Mattresses;"	37.1626185";"	-80.4177053";41:44,0;7300501;7300501;"	7300501";"	";"	90002538";"	 ";"	 ";"	 ";"	 ";"	yes       ";16494;SIMMONS;Store Success;East;North East 2;North East 2_07;;;Black Diamond Preferred;YES;0;;0;Lee;Martin;101621;Bookbinder, Rachel (Rep RBO);Rep RBO;101637;;;;12;0;4;
2475;Grand Home Furnishings;3325 Lee Hwy;;Bristol;VA;"	24202";(276) 466-3999;"	";http://www.grandhomefurnishings.com/Mattresses;"	36.6335467";"	-82.1193387";41:44,0;143775;78047;"	7300501";"	";"	90002538";"	 ";"	 ";"	 ";"	 ";"	NO        ";16495;SIMMONS;Store Success;East;South East 2;South East 2_06;;;Black Diamond Preferred;YES;0;;0;Tim;Fleming;101727;Bookbinder, Rachel (Rep RBO);Rep RBO;101637;;;;24;12;2;
2476;Grand Home Furnishings;1535 E Stone Dr;;Kingsport;TN;"	37660";(423) 246-1333;"	";http://www.grandhomefurnishings.com/Mattresses;"	36.5485663";"	-82.5206289";41:44,0;179019;78047;"	7300501";"	";"	90002538";"	 ";"	 ";"	 ";"	 ";"	NO        ";16496;SIMMONS;Store Success;East;South East 2;South East 2_06;;;Black Diamond Preferred;YES;0;;0;Tim;Fleming;101727;Bookbinder, Rachel (Rep RBO);Rep RBO;101637;;;;24;12;2;
2477;Grand Home Furnishings;5401 Fort Avenue;;Lynchburg;VA;"	24502";(434) 239-5900;"	";http://www.grandhomefurnishings.com/Mattresses;"	37.3760374";"	-79.1867656";41:44,0;7300501;7300501;"	7300501";"	";"	90002538";"	 ";"	 ";"	 ";"	 ";"	yes       ";16497;SIMMONS;Store Success;East;North East 2;North East 2_07;;;Black Diamond Preferred;YES;0;;0;Lee;Martin;101621;Bookbinder, Rachel (Rep RBO);Rep RBO;101637;;;;12;0;4;
2480;Grand Home Furnishings;2080 Evelyn Byrd Ave;;Harrisonburg;VA;"	22801";(540) 434-7619;"	";http://www.grandhomefurnishings.com/Mattresses;"	38.4252726";"	-78.8450417";41:44,1;7300501;7300501;"	7300501";"	";"	90002538";"	 ";"	 ";"	 ";"	 ";"	yes       ";25425;SIMMONS;Store Success;East;North East 2;North East 2_07;;;Black Diamond Preferred;YES;0;;0;Lee;Martin;101621;Bookbinder, Rachel (Rep RBO);Rep RBO;101637;;;;12;0;4;
2481;Grand Home Furnishings;1945 Valley View Blvd NW;;Roanoke;VA;"	24012";(540) 563-2070;"	";http://www.grandhomefurnishings.com/Mattresses;"	37.3068827";"	-79.9660975";41:44,1;446985;78047;"	7300501";"	";"	90002538";"	 ";"	 ";"	 ";"	 ";"	yes       ";16498;SIMMONS;Store Success;East;North East 2;North East 2_07;;;Black Diamond Preferred;YES;0;;0;Lee;Martin;101621;Bookbinder, Rachel (Rep RBO);Rep RBO;101637;;;;12;0;4;
2482;Grand Home Furnishings;3026 E Oakland Ave;;Johnson City;TN;"	37601";(423) 283-4211;"	";http://www.grandhomefurnishings.com/Mattresses;"	36.3605849";"	-82.3828831";41:44,1;446985;78047;"	7300501";"	";"	90002538";"	 ";"	 ";"	 ";"	 ";"	NO        ";25426;SIMMONS;Store Success;East;South East 2;South East 2_06;;;Black Diamond Preferred;YES;0;;0;Tim;Fleming;101727;Bookbinder, Rachel (Rep RBO);Rep RBO;101637;;;;24;12;2;
2490;Colortyme;2028 Dillingham Boulevard;;Honolulu;HI;"	96819";(808) 848-1010;"	";;"	21.3295157";"	-157.8821043";12:18,0;415169;415168;"	7415168";"	";"	90002708";"	 ";"	 ";"	 ";"	 ";"	NO        ";16499;SIMMONS;Serta Simmons Bedding;SSB;Corporate;Corporate;;;;NO;0;;0;Lance;Matsuda;100334;Matsuda, Lance (Rep MAT);Rep MAT;100334;;;;0;;4;
2491;Colortyme;94-910 Moloalo Street;;Waipahu;HI;"	96797";(808) 680-9393;"	";;"	21.3852764";"	-158.0014233";12:18,1;415169;415168;"	7415168";"	";"	90002708";"	 ";"	 ";"	 ";"	 ";"	NO        ";16500;SIMMONS;Serta Simmons Bedding;SSB;Corporate;Corporate;;;;NO;0;;0;Lance;Matsuda;100334;Matsuda, Lance (Rep MAT);Rep MAT;100334;;;;0;;4;
2494;Baker Brothers;55 Brennan St;;Watsonville;CA;"	95076";(831) 722-6116;"	";;"	36.9140808";"	-121.7588007";41:44,1;247063;247063;"	7247063";"	";"	90002387";"	 ";"	 ";"	 ";"	 ";"	NO        ";25427;SIMMONS;Serta Simmons Bedding;SSB;Corporate;Corporate;;;;NO;0;;0;Heather;Redman;102032;Morrissey, Heather (Rep HMO);Rep HMO;101670;;;;8;0;4;
2498;Kraft Furniture;3567 El Camino Real;Across from the Creekside Inn;Palo Alto;CA;"	94306";(650) 493-4533;"	";;"	37.4191124";"	-122.1339355";41:44,2;48967;48967;"	748967";"	";"	90004166";"	 ";"	 ";"	 ";"	 ";"	NO        ";15485;SIMMONS;Serta Simmons Bedding;SSB;Los Angeles;Los Angeles_04;;;;NO;0;;0;Nicki;Brown;101368;Van Emmerik, Shawn (Rep SVE);Rep SVE;101570;;;;12;0;4;
2501;Mattress Firm;1604 N Main St;;Salinas;CA;"	93906";(831) 443-3675;"	502036";www.mattressfirm.com/simmons-mattresses-0-c16/;"	36.7136761";"	-121.6540794";13:50,8;207281;446630;"	7446630";"	";"	10060000";"	 ";"	 ";"	 ";"	 ";"	NO        ";16376;SIMMONS;Store Success;West;North West;North West_05;;;Black Diamond Preferred;YES;0;;1;Tara;Placencia;101551;Laney, Mike  (Rep LAN);Rep LAN;100345;;;;12;4;4;
2502;Mattress Firm;1129 S Main St;;Salinas;CA;"	93901";(831) 771-8682;"	502037";www.mattressfirm.com/simmons-mattresses-0-c16/;"	36.6584241";"	-121.6588327";13:50,9;207281;446630;"	7446630";"	";"	10060000";"	 ";"	 ";"	 ";"	 ";"	NO        ";25428;SIMMONS;Store Success;West;North West;North West_05;;;Black Diamond Preferred;YES;0;;1;Tara;Placencia;101551;Laney, Mike  (Rep LAN);Rep LAN;100345;;;;12;4;4;
2508;Senate Sofabeds;3651 Soquel Dr;;Soquel;CA;"	95073";(831) 476-7002;"	";;"	36.987516";"	-121.9677523";41:44,3;7191072;7191072;"	7191072";"	";"	70620011";"	 ";"	 ";"	 ";"	 ";"	NO        ";15487;SIMMONS;Serta Simmons Bedding;SSB;Los Angeles;Los Angeles_04;;;;NO;0;;0;Nicki;Brown;101368;Van Emmerik, Shawn (Rep SVE);Rep SVE;101570;;;;24;4;2;
2541;DL Furniture;6020 Florin Road;;Sacramento;CA;"	95823";(916) 391-5333;"	";www.dnlfurniture.com;"	38.495432";"	-121.435383";00:00,0;423069;423069;"	7423069";"	";"	70080476";"	 ";"	 ";"	 ";"	 ";"	NO        ";15488;SIMMONS;Serta Simmons Bedding;SSB;Los Angeles;Los Angeles_03;;;;NO;0;;0;Michael;Kiley;101809;Van Emmerik, Shawn (Rep SVE);Rep SVE;101570;;;;12;0;4;
2563;Mattress Firm;10601 US Highway 441;;Leesburg;FL;"	34788";(352) 314-9700;"	053025";www.mattressfirm.com/simmons-mattresses-0-c16/;"	28.8235234";"	-81.7814256";44:16,7;446630;446630;"	7446630";"	";"	10060000";"	 ";"	 ";"	 ";"	 ";"	NO        ";10169;SIMMONS;Store Success;East;South East 1;South East 1_02;;;Black Diamond Preferred;YES;0;;0;Zach;Presley;101891;Laney, Mike  (Rep LAN);Rep LAN;100345;;;;24;4;2;
2587;Mattress SuperStore;216 Newbury St.;;Peabody;MA;"	01960";(978) 535-2220;"	";;"	42.5460689";"	-70.9855684";;230078;414021;"	7230078";"	";"	70080055";"	 ";"	 ";"	 ";"	 ";"	NO        ";16502;SIMMONS;Serta Simmons Bedding;SSB;Boston;Boston_01;;;;NO;0;;1;Loren;Blanchard;101490;Marano, Jacki (Rep JMA);Rep JMA;101558;;;;12;;4;
2593;Plotkin Wayside;93 Park Ave;;Keene;NH;"	03431";(603) 352-4334;"	";;"	42.939213";"	-72.3050318";41:44,4;221431;221431;"	7221431";"	";"	90002266";"	 ";"	 ";"	 ";"	 ";"	NO        ";16503;SIMMONS;Serta Simmons Bedding;SSB;Boston;Boston_02;;;;NO;0;sales@plotkinfurniture.com;0;Peter;O'Brien;101768;Marano, Jacki (Rep JMA);Rep JMA;101558;;;;8;0;4;
2605;Angeles Furniture;1114 E 1st St;;Port Angeles;WA;"	98362";(360) 457-9412;"	";;"	48.110973";"	-123.414747";00:00,0;214519;214519;"	7302038";"	";"	90002566";"	 ";"	 ";"	 ";"	 ";"	NO        ";16504;SIMMONS;Serta Simmons Bedding;SSB;Seattle;Seattle_00;;;;NO;0;jong@angelesfurniture.com;0;Brandon;Ware;102118;Ramsden, Marilyn (Rep MRM);Rep MRM;101761;;;;0;0;4;
2608;Behars Furniture and Carpet;2105 Broadway;;Everett;WA;"	98201";(425) 259-7149;"	";www.behars.com;"	47.989027";"	-122.200862";00:00,0;7153832;7153832;"	7153832";"	";"	90002121";"	 ";"	 ";"	 ";"	 ";"	NO        ";16505;SIMMONS;Serta Simmons Bedding;SSB;Seattle;Seattle_04;;;;NO;0;getinfo@behars.com;0;Lawrence;Lamar;101278;Ramsden, Marilyn (Rep MRM);Rep MRM;101761;;;;6;0;8;
2609;Boswell  Sons;2915 Easy St;;Wenatchee;WA;"	98801";(509) 663-2548;"	";;"	47.48657";"	-120.410412";41:44,6;254119;254119;"	7254119";"	";"	90002441";"	 ";"	 ";"	 ";"	 ";"	NO        ";16506;SIMMONS;Serta Simmons Bedding;SSB;Corporate;Corporate;;;;NO;0;boswells@bosellsfurniture.com;0;Alicia;Lomber;102091;Morrissey, Heather (Rep HMO);Rep HMO;101670;;;;0;0;4;
2623;Rolfson Furniture;1105 West Division Street;;Mount Vernon;WA;"	98273";(360) 424-7876;"	";;"	48.4221844";"	-122.3494274";;80770;80770;"	780770";"	";"	90005363";"	 ";"	 ";"	 ";"	 ";"	NO        ";25431;SIMMONS;Store Success;West;North West;North West_06;;;;YES;0;;0;Danny;Meints;102120;Ware, Brandon (Rep BWR);Rep BWR;102118;;;;12;0;4;
2625;SavMart;1729 North Wenatchee Avenue;;Wenatchee;WA;"	98801";(509) 663-1671;"	";;"	47.4485841";"	-120.330014";00:00,0;51185;51185;"	751185";"	";"	70080645";"	 ";"	 ";"	 ";"	 ";"	NO        ";16507;SIMMONS;Serta Simmons Bedding;SSB;Seattle;Seattle_06;;;;NO;0;nkansky@yahoo.com;0;Alan;Pehrson;100817;Ramsden, Marilyn (Rep MRM);Rep MRM;101761;;;;0;0;4;
2626;Shaws Furniture;512 North Pearl Street;;Ellensburg;WA;"	98926";(509) 925-1475;"	";;"	46.9972411";"	-120.5469462";00:00,0;215441;215441;"	7215441";"	";"	70670002";"	 ";"	 ";"	 ";"	 ";"	NO        ";25432;SIMMONS;Serta Simmons Bedding;SSB;Seattle;Seattle_06;;;;NO;0;;0;Alan;Pehrson;100817;Ramsden, Marilyn (Rep MRM);Rep MRM;101761;;;;0;0;4;
2627;Whidbey Furniture;290 SE Pioneer Way;;Oak Harbor;WA;"	98277";(360) 675-2249;"	";www.whidbeyfurniture.com;"	48.288125";"	-122.654285";13:51,2;215566;215566;"	7215566";"	";"	90002255";"	 ";"	 ";"	 ";"	 ";"	NO        ";16508;SIMMONS;Serta Simmons Bedding;SSB;Seattle;Seattle_00;;;;NO;0;;1;Brandon;Ware;102118;Ramsden, Marilyn (Rep MRM);Rep MRM;101761;;;;0;0;4;
2637;Crutchfield's;209 N Hamilton St;;Dalton;GA;"	30720";(706) 278-4909;"	";;"	34.7728089";"	-84.9682519";;67;67;"	767";"	";"	90004762";"	 ";"	 ";"	 ";"	 ";"	NO        ";25433;SIMMONS;Serta Simmons Bedding;SSB;Nashville;Nashville_05;;;;NO;0;;0;Richard;Towery;101787;Webb, Dennis (Rep WEB);Rep WEB;101189;;;;12;0;4;
2661;New National Mattress Clearance Center;21354 Foothill Blvd;;Hayward;CA;"	94541";(510) 538-1700;"	";;"	37.6849938";"	-122.0913943";41:44,8;421552;421552;"	7421552";"	";"	90002863";"	 ";"	 ";"	 ";"	 ";"	NO        ";15489;SIMMONS;Serta Simmons Bedding;SSB;Los Angeles;Los Angeles_04;;;;NO;0;;0;Nicki;Brown;101368;Van Emmerik, Shawn (Rep SVE);Rep SVE;101570;;;;0;0;4;
2690;Lindsay's Furniutre;114 US 10  Ludington Ave;;Ludington;MI;"	49431";(231) 843-2574;"	";;"	43.9555698";"	-86.4474328";41:44,8;7149699;7149699;"	7149699";"	";"	10140000";"	 ";"	 ";"	 ";"	 ";"	yes       ";16512;SIMMONS;Store Success;West;Mid West 2;Mid West 2_11;;;;YES;0;;0;Susan;Ziober;100994;Bickford, Guy (Rep BIK);Rep BIK;100517;;;;3;4;16;
2701;StewartClarke;472 W Michigan Ave;;Kalamazoo;MI;"	49007";(269) 343-4689;"	";;"	42.291909";"	-85.5889031";41:44,9;32382;32382;"	732382";"	";"	10140000";"	 ";"	 ";"	 ";"	 ";"	yes       ";16514;SIMMONS;Serta Simmons Bedding;SSB;Corporate;Corporate;;;;NO;0;;0;Guy;Bickford;100517;Mersbach, Tom (REP TME);REP TME;101569;;;;8;;4;
2704;Talsma Furniture;3620 Chicago Drive;;Hudsonville;MI;"	49426";(616) 669-1030;"	";www.talsmafurniture.com/Furniture-Simmons/ItemBrowser.aspx?action=attributes&ItemType=Furniture&offset=0&Brand=Simmons;"	42.8640628";"	-85.8717702";41:44,9;732390;732390;"	732390";"	";"	10140000";"	 ";"	 ";"	 ";"	 ";"	yes       ";16516;SIMMONS;Store Success;West;Mid West 2;Mid West 2_11;;;;YES;0;;0;Susan;Ziober;100994;Bickford, Guy (Rep BIK);Rep BIK;100517;;;;12;4;4;
2706;Talsma Furniture;71 84th Street SW;;Byron Center;MI;"	49315";(616) 455-3770;"	";www.talsmafurniture.com/Furniture-Simmons/ItemBrowser.aspx?action=attributes&ItemType=Furniture&offset=0&Brand=Simmons;"	42.8126729";"	-85.665391";41:44,9;732390;732390;"	732390";"	";"	10140000";"	 ";"	 ";"	 ";"	 ";"	yes       ";16517;SIMMONS;Store Success;West;Mid West 2;Mid West 2_11;;;;YES;0;;0;Susan;Ziober;100994;Bickford, Guy (Rep BIK);Rep BIK;100517;;;;12;4;4;
2710;Van Drie;314 N State Street;;Big Rapids;MI;"	49307";(800) 968-5452;"	";www.vandrie.com/browseMattresses.aspx?mfgID=-2045640292;"	43.7012863";"	-85.4840159";41:45,0;7436840;7436840;"	7436840";"	";"	10140000";"	 ";"	 ";"	 ";"	 ";"	yes       ";16518;SIMMONS;Store Success;West;Mid West 2;Mid West 2_11;;;;YES;0;;0;Susan;Ziober;100994;Bickford, Guy (Rep BIK);Rep BIK;100517;;;;12;4;4;
2711;Van Drie;7591 US Highway 131 S;;Cadillac;MI;"	49601";(800) 968-8185;"	";www.vandrie.com/browseMattresses.aspx?mfgID=-2045640292;"	44.2286995";"	-85.3961971";41:45,0;240465;240465;"	7436840";"	";"	10140000";"	 ";"	 ";"	 ";"	 ";"	yes       ";16519;SIMMONS;Store Success;West;Mid West 2;Mid West 2_11;;;;YES;0;twinkle@vandrie.com;0;Susan;Ziober;100994;Bickford, Guy (Rep BIK);Rep BIK;100517;;;;12;4;4;
2713;Van Drie;6455 West Houghton Lake Drive;;Houghton Lake;MI;"	48629";(517) 422-5734;"	";www.vandrie.com/browseMattresses.aspx?mfgID=-2045640292;"	44.3119696";"	-84.7618783";41:45,0;7436840;7436840;"	7436840";"	";"	10140000";"	 ";"	 ";"	 ";"	 ";"	yes       ";16520;SIMMONS;Store Success;West;Mid West 2;Mid West 2_11;;;;YES;0;;0;Susan;Ziober;100994;Bickford, Guy (Rep BIK);Rep BIK;100517;;;;3;4;16;
2715;Van Drie;657 N US Highway 31 S;;Traverse City;MI;"	49684";(231) 943-7662;"	";www.vandrie.com/browseMattresses.aspx?mfgID=-2045640292;"	44.7650548";"	-85.620031";41:45,0;240465;240465;"	7436840";"	";"	10140000";"	 ";"	 ";"	 ";"	 ";"	yes       ";16521;SIMMONS;Store Success;West;Mid West 2;Mid West 2_11;;;;YES;0;twinkle@vandrie.com;0;Susan;Ziober;100994;Bickford, Guy (Rep BIK);Rep BIK;100517;;;;12;12;4;
2751;McDaniels Furniture;1020 N Main St;;Clovis;NM;"	88101";(505) 762-4481;"	";mcdanielsofclovis.com;"	34.408761";"	-103.205808";13:51,6;21675;21675;"	7300169";"	";"	90002516";"	 ";"	 ";"	 ";"	 ";"	yes       ";16529;SIMMONS;Serta Simmons Bedding;SSB;Phoenix;Phoenix_04;;;;NO;0;;1;Michael;Jones;101559;Gomez, Jack (Rep GOM);Rep GOM;101531;;;;12;;4;
2764;Roes Furniture;4001 Highland;;Snyder;TX;"	79549";(325) 573-3402;"	";;"	32.7031965";"	-100.9222974";41:45,4;417973;417973;"	7417973";"	";"	90002768";"	 ";"	 ";"	 ";"	 ";"	yes       ";16532;SIMMONS;Serta Simmons Bedding;SSB;Corporate;Corporate;;;;NO;0;;0;Weston;King;102058;Mersbach, Tom (REP TME);REP TME;101569;;;;24;;4;
2781;W D Wilkins Furniture;3111 50th St;;Lubbock;TX;"	79413";(806) 797-4211;"	";;"	33.5478456";"	-101.8820428";41:45,5;432661;430;"	7300003";"	";"	90002504";"	 ";"	 ";"	 ";"	 ";"	yes       ";16536;SIMMONS;Serta Simmons Bedding;SSB;Corporate;Corporate;;;;NO;0;garywarren23@yahoo.com;0;Weston;King;102058;Mersbach, Tom (REP TME);REP TME;101569;;;;1;;4;
2782;Bory's Furniture;508 Montgomery St;;Chicopee;MA;"	01020";(413) 533-0500;"	";;"	42.1733745";"	-72.5862893";41:45,5;35899;35899;"	735899";"	";"	90002612";"	 ";"	 ";"	 ";"	 ";"	NO        ";16537;SIMMONS;Serta Simmons Bedding;SSB;Corporate;Corporate;;;;NO;0;bory15@aol.com;0;Alicia;Lomber;102091;Morrissey, Heather (Rep HMO);Rep HMO;101670;;;;12;;4;
2800;Sit and Sleep for Less;2640 N Highway 190;;Covington;LA;"	70433";(985) 893-1916;"	";;"	30.4698787";"	-90.0854673";41:45,6;4068;4068;"	74068";"	";"	90002621";"	 ";"	 ";"	 ";"	 ";"	NO        ";16540;SIMMONS;Serta Simmons Bedding;SSB;Nashville;Nashville_02;;;;NO;0;wesfavaloro47@hotmail.com;0;Jose;Budde;100902;Budde, Jose (Rep BUD);Rep BUD;100902;;;;6;;4;
2812;Discount Appliances;221 N Bent St;;Powell;WY;"	82435";(307) 754-1012;"	";;"	44.7546391";"	-108.7569372";;450858;251339;"	7450858";"	";"	90004055";"	 ";"	 ";"	 ";"	 ";"	NO        ";16541;SIMMONS;Serta Simmons Bedding;SSB;Phoenix;Phoenix_01;;;;NO;0;;0;Dale;Anderson;101831;Stephens, Mason (Rep STP);Rep STP;100992;;;;8;;4;
2816;Furniture Tech;29 S Beltline Hwy W.;P.O. Box 788;Scottsbluff;NE;"	69361";(308) 632-8800;"	";;"	41.8534999";"	-103.664";00:00,0;228972;228972;"	7302373";"	";"	90002576";"	 ";"	 ";"	 ";"	 ";"	NO        ";16542;SIMMONS;Serta Simmons Bedding;SSB;Phoenix;Phoenix_01;;;;NO;0;;0;Dale;Anderson;101831;Stephens, Mason (Rep STP);Rep STP;100992;;;;0;0;4;
2818;Slumberland Furniture;2320 N Maple Ave;;Rapid City;SD;"	57701";(605) 342-6090;"	";https://www.slumberland.com/furniture/departments/mattresses/beautyrest-beautysleep-mattresses;"	44.1098611";"	-103.209104";41:45,7;717921;717921;"	717921";"	";"	50200000";"	 ";"	 ";"	 ";"	 ";"	NO        ";16543;SIMMONS;Store Success;West;South West;South West_07;;;;YES;0;;0;Jerry;Clausman;100367;Haugland, Dan (Rep DHU);Rep DHU;100940;;;;12;4;4;
2830;Town  Country Furniture;183 Klein Avenue;;Glasgow;MT;"	59230";(406) 228-9386;"	";;"	48.1945062";"	-106.6300449";41:45,7;12419;12419;"	712419";"	";"	90002090";"	 ";"	 ";"	 ";"	 ";"	NO        ";16546;SIMMONS;Serta Simmons Bedding;SSB;Seattle;Seattle_07;;;;NO;0;frosttc@nemontel.net;0;Brycen;McCurry;102031;Ramsden, Marilyn (Rep MRM);Rep MRM;101761;;;;0;0;4;
2832;The Sleep Shop;495 Hwy. 49;;Auburn;CA;"	95603";(530) 888-0899;"	";;"	38.9026406";"	-121.0557411";41:45,7;231646;231646;"	7231646";"	";"	70610006";"	 ";"	 ";"	 ";"	 ";"	NO        ";15490;SIMMONS;Serta Simmons Bedding;SSB;Los Angeles;Los Angeles_03;;;;NO;0;;0;Michael;Kiley;101809;Van Emmerik, Shawn (Rep SVE);Rep SVE;101570;;;;0;;4;
2900;Macy's;7675 N Kendall Dr;;Miami;FL;"	33156";(305) 662-3525;"	776";http://www1.macys.com/shop/mattress/beautyrest-mattress?id=30764&edge=hybrid&cm_sp=c2_1111US_catsplash_mattresses-_-row9-_-icon_beautyrest;"	25.6906571";"	-80.3155689";;720248;720248;"	720248";"	";"	10040000";"	 ";"	 ";"	 ";"	 ";"	NO        ";16548;SIMMONS;Store Success;East;South East 1;South East 1_01;National;Department Stores;Black Diamond Preferred;YES;0;;0;Javier;Ortiz;101686;Noone, Michael (Rep MNO);Rep MNO;101322;;;;24;0;2;
2946;Clark Furniture;Route 6;;Wysox;PA;"	18854";(570) 265-9135;"	";;"	41.7636018";"	-76.4360389";41:46,5;41731;41731;"	741731";"	";"	90002750";"	 ";"	 ";"	 ";"	 ";"	NO        ";16553;SIMMONS;Serta Simmons Bedding;SSB;Boston;Boston_06;;;;NO;0;;0;Nate;Brown;101820;Marano, Jacki (Rep JMA);Rep JMA;101558;;;;0;0;4;
2973;Jay Furniture;101 Satterlee St;;Athens;PA;"	18810";(570) 888-2150;"	";;"	41.9622711";"	-76.5200579";41:46,6;247188;247188;"	7247188";"	";"	90002390";"	 ";"	 ";"	 ";"	 ";"	NO        ";16558;SIMMONS;Serta Simmons Bedding;SSB;Corporate;Corporate;;;;NO;0;;0;Heather;Redman;102032;Morrissey, Heather (Rep HMO);Rep HMO;101670;;;;0;0;4;
3012;Frazier Home Furnishings;1241 East Calvada Boulevard;;Pahrump;NV;"	89048";(775) 727-3600;"	";;"	36.191044";"	-115.991781";41:46,7;415688;415688;"	7415688";"	";"	70740070";"	 ";"	 ";"	 ";"	 ";"	yes       ";16562;SIMMONS;Serta Simmons Bedding;SSB;Corporate;Corporate;;;;NO;0;;0;Jacob ;Bell;101486;Mersbach, Tom (REP TME);REP TME;101569;;;;8;;4;
3025;World Furniture  Mattress Gallery;40505 Albrae St.;;Fremont;CA;"	94538";(510) 623-1587;"	";http://www.wfmattressgallery.com/;"	37.5204343";"	-121.9873852";41:46,7;7428741;7428741;"	7428741";"	";"	90002970";"	 ";"	 ";"	 ";"	 ";"	NO        ";25447;SIMMONS;Serta Simmons Bedding;SSB;Los Angeles;Los Angeles_04;;;;NO;0;;0;Nicki;Brown;101368;Van Emmerik, Shawn (Rep SVE);Rep SVE;101570;;;;6;0;4;
3108;Barron's Furnitue;17617 Grand Ave;;Lake Elsinore;CA;"	92530";(951) 678-1100;"	";;"	33.6391823";"	-117.3454402";41:46,8;245779;245779;"	7245779";"	";"	90002381";"	 ";"	 ";"	 ";"	 ";"	NO        ";15494;SIMMONS;Serta Simmons Bedding;SSB;Corporate;Corporate;;;;NO;0;;0;Heather;Redman;102032;Morrissey, Heather (Rep HMO);Rep HMO;101670;;;;8;0;4;
3136;Schewel Furniture;512 Main St;;Altavista;VA;"	24517";(434) 369-5283;"	";https://www.schewels.com/by-category/matr/Mattresses.html;"	37.1093127";"	-79.2895269";41:46,9;7408866;7408866;"	7408866";"	";"	90002623";"	 ";"	 ";"	 ";"	 ";"	yes       ";16563;SIMMONS;Store Success;East;North East 2;North East 2_07;;;;YES;0;;0;Lee;Martin;101621;Bookbinder, Rachel (Rep RBO);Rep RBO;101637;;;;12;12;4;
3138;Schewel Furniture;560 Westgate Shopping Center;;Bedford;VA;"	24523";(540) 586-0879;"	";https://www.schewels.com/by-category/matr/Mattresses.html;"	37.3371426";"	-79.5314456";41:46,9;7408866;7408866;"	7408866";"	";"	90002623";"	 ";"	 ";"	 ";"	 ";"	yes       ";16564;SIMMONS;Store Success;East;North East 2;North East 2_07;;;;YES;0;;0;Lee;Martin;101621;Bookbinder, Rachel (Rep RBO);Rep RBO;101637;;;;12;0;4;
3140;Schewel Furniture;1055 Peppers Ferry Rd NW;;Christiansburg;VA;"	24073";(540) 381-8021;"	";https://www.schewels.com/by-category/matr/Mattresses.html;"	37.1634638";"	-80.4423199";41:47,0;7408866;7408866;"	7408866";"	";"	90002623";"	 ";"	 ";"	 ";"	 ";"	yes       ";16565;SIMMONS;Store Success;East;North East 2;North East 2_07;;;;YES;0;;0;Lee;Martin;101621;Bookbinder, Rachel (Rep RBO);Rep RBO;101637;;;;12;0;4;
3141;Schewel Furniture;2706 Virginia Ave;;Collinsville;VA;"	24078";(540) 647-1728;"	";https://www.schewels.com/by-category/matr/Mattresses.html;"	36.7177369";"	-79.9091117";41:47,0;250407;250274;"	7408866";"	";"	90002623";"	 ";"	 ";"	 ";"	 ";"	yes       ";16566;SIMMONS;Store Success;East;North East 2;North East 2_07;;;;YES;0;;0;Lee;Martin;101621;Bookbinder, Rachel (Rep RBO);Rep RBO;101637;;;;12;0;4;
3146;Schewel Furniture;7007 Timberlake Rd;;Lynchburg;VA;"	24502";(434) 239-7755;"	";https://www.schewels.com/by-category/matr/Mattresses.html;"	37.3649806";"	-79.2069069";41:47,0;7408866;7408866;"	7408866";"	";"	90002623";"	 ";"	 ";"	 ";"	 ";"	yes       ";16567;SIMMONS;Store Success;East;North East 2;North East 2_07;;;;YES;0;;0;Lee;Martin;101621;Bookbinder, Rachel (Rep RBO);Rep RBO;101637;;;;12;4;4;
3152;Schewel Furniture;1125 Franklin St;;Rocky Mount;VA;"	24151";(540) 483-5144;"	";https://www.schewels.com/by-category/matr/Mattresses.html;"	36.9899258";"	-79.9003268";41:47,0;7408866;7408866;"	7408866";"	";"	90002623";"	 ";"	 ";"	 ";"	 ";"	yes       ";16568;SIMMONS;Store Success;East;North East 2;North East 2_07;;;;YES;0;;0;Lee;Martin;101621;Bookbinder, Rachel (Rep RBO);Rep RBO;101637;;;;12;0;4;
3164;Schewel Furniture;2014 Apperson Dr;;Salem;VA;"	24153";(540) 776-8393;"	";https://www.schewels.com/by-category/matr/Mattresses.html;"	37.265935";"	-80.025872";41:47,1;428585;250274;"	7408866";"	";"	90002623";"	 ";"	 ";"	 ";"	 ";"	yes       ";16570;SIMMONS;Store Success;East;North East 2;North East 2_07;;;;YES;0;;0;Lee;Martin;101621;Bookbinder, Rachel (Rep RBO);Rep RBO;101637;;;;12;0;4;
3171;Schewel Furniture;2400 S Front St;;Richlands;VA;"	24641";(276) 963-8733;"	";https://www.schewels.com/by-category/matr/Mattresses.html;"	37.0925817";"	-81.8070829";41:47,1;428585;250274;"	7408866";"	";"	90002623";"	 ";"	 ";"	 ";"	 ";"	NO        ";16572;SIMMONS;Store Success;East;South East 2;South East 2_06;;;;YES;0;;0;Tim;Fleming;101727;Bookbinder, Rachel (Rep RBO);Rep RBO;101637;;;;12;4;4;
3173;Schewel Furniture;1123 Stafford Dr;;Princeton;WV;"	24740";(304) 323-3500;"	";https://www.schewels.com/by-category/matr/Mattresses.html;"	37.3621231";"	-81.0946354";41:47,2;428585;250274;"	7408866";"	";"	90002623";"	 ";"	 ";"	 ";"	 ";"	NO        ";16573;SIMMONS;Store Success;East;South East 2;South East 2_12;;;;YES;0;;0;Ray Blaine;Smith;101457;Bookbinder, Rachel (Rep RBO);Rep RBO;101637;;;;12;0;4;
3176;Knie TV and Appliance;3614 E Lincolnway;;Sterling;IL;"	61081";(815) 626-5631;"	";www.shopknies.com;"	41.8132397";"	-89.6537795";41:47,2;252873;252873;"	7428139";"	";"	70080379";"	 ";"	 ";"	 ";"	 ";"	NO        ";25451;SIMMONS;Serta Simmons Bedding;SSB;Chicago;Chicago_00;;;;NO;0;;0;Scott;Hayes;101715;Hoskins, John (Rep JH1);Rep JH1;101764;;;;4;4;4;
3189;Slumberland Furniture;4390 Dodge St;;Dubuque;IA;"	52003";(563) 582-1095;"	";https://www.slumberland.com/furniture/departments/mattresses/beautyrest-beautysleep-mattresses;"	42.4875645";"	-90.7395149";41:47,3;174937;17921;"	717921";"	";"	50200000";"	 ";"	 ";"	 ";"	 ";"	NO        ";16575;SIMMONS;Store Success;West;Mid West 1;Mid West 1_06;;;;YES;0;;0;Daniel;Tullie;101615;Haugland, Dan (Rep DHU);Rep DHU;100940;;;;12;12;4;
3191;Slumberland Furniture;4020 University Ave;;Waterloo;IA;"	50701";(319) 235-0155;"	";https://www.slumberland.com/furniture/departments/mattresses/beautyrest-beautysleep-mattresses;"	42.5060236";"	-92.405048";41:47,3;717921;717921;"	717921";"	";"	50200000";"	 ";"	 ";"	 ";"	 ";"	NO        ";16576;SIMMONS;Store Success;West;Mid West 1;Mid West 1_06;;;;YES;0;;0;Daniel;Tullie;101615;Haugland, Dan (Rep DHU);Rep DHU;100940;;;;12;12;4;
3237;Sigrist Furniture;201 West Chicago Road;;Sturgis;MI;"	49091";(269) 651-5776;"	";;"	41.7991668";"	-85.4200117";41:47,7;12194;12194;"	712194";"	";"	10140000";"	 ";"	 ";"	 ";"	 ";"	NO        ";16577;SIMMONS;Serta Simmons Bedding;SSB;Corporate;Corporate;;;;NO;0;;0;Guy;Bickford;100517;Mersbach, Tom (REP TME);REP TME;101569;;;;12;;4;
3238;Slumberland Furniture;6910 Argus Drive;;Rockford;IL;"	61107";(815) 397-6800;"	";https://www.slumberland.com/furniture/departments/mattresses/beautyrest-beautysleep-mattresses;"	42.27295";"	-88.983005";41:47,7;418382;17921;"	717921";"	";"	50200000";"	 ";"	 ";"	 ";"	 ";"	NO        ";16578;SIMMONS;Store Success;West;Mid West 1;Mid West 1_03;;;;YES;0;;0;Allie;Meints;102056;Haugland, Dan (Rep DHU);Rep DHU;100940;;;;12;12;4;
3285;Scandinavian Designs;1212 4th St.;;San Rafael;CA;"	94901";(415) 457-5500;"	";www.ScandinavianDesigns.com;"	37.9734937";"	-122.5298228";41:47,8;420210;420210;"	7420210";"	";"	70080509";"	 ";"	 ";"	 ";"	 ";"	NO        ";15496;SIMMONS;Serta Simmons Bedding;SSB;Los Angeles;Los Angeles_07;;;;NO;0;;0;Jeff;Moran;100258;Moran, Jeff (Rep MRN);Rep MRN;100258;;;;4;4;4;
3288;Scandinavian Designs;3480 Industrial Dr.;;Santa Rosa;CA;"	95403";(707) 528-6640;"	";www.ScandinavianDesigns.com;"	38.4766921";"	-122.7386022";41:47,8;420210;420210;"	7420210";"	";"	70080509";"	 ";"	 ";"	 ";"	 ";"	NO        ";25452;SIMMONS;Serta Simmons Bedding;SSB;Los Angeles;Los Angeles_07;;;;NO;0;;0;Jeff;Moran;100258;Moran, Jeff (Rep MRN);Rep MRN;100258;;;;4;4;4;
3290;Scandinavian Designs;1701 Arnold Industrial Dr.;;Concord;CA;"	94520";(925) 827-4466;"	";www.ScandinavianDesigns.com;"	38.0002119";"	-122.051658";41:47,8;420210;420210;"	7420210";"	";"	70080509";"	 ";"	 ";"	 ";"	 ";"	NO        ";15497;SIMMONS;Serta Simmons Bedding;SSB;Los Angeles;Los Angeles_07;;;;NO;0;;0;Jeff;Moran;100258;Moran, Jeff (Rep MRN);Rep MRN;100258;;;;4;4;4;
3294;Scandinavian Designs;2101 Shattuck Ave.;;Berkeley;CA;"	94704";(510) 848-8250;"	";www.ScandinavianDesigns.com;"	37.8711445";"	-122.2673609";41:47,9;420210;420210;"	7420210";"	";"	70080509";"	 ";"	 ";"	 ";"	 ";"	NO        ";15498;SIMMONS;Serta Simmons Bedding;SSB;Los Angeles;Los Angeles_07;;;;NO;0;;0;Jeff;Moran;100258;Moran, Jeff (Rep MRN);Rep MRN;100258;;;;4;4;4;
3297;Scandinavian Designs;4301 Sunrise Blvd.;;Fair Oaks;CA;"	95628";(916) 965-9550;"	";www.scandinaviandesigns.com/home/bedroom/mattresses;"	38.6436269";"	-121.2736657";41:47,9;420210;420210;"	7420210";"	";"	70080509";"	 ";"	 ";"	 ";"	 ";"	NO        ";15500;SIMMONS;Serta Simmons Bedding;SSB;Los Angeles;Los Angeles_07;;;;NO;0;;0;Jeff;Moran;100258;Moran, Jeff (Rep MRN);Rep MRN;100258;;;;4;4;4;
3298;Scandinavian Designs;1115 South De Anza Boulevard;;San Jose;CA;"	95129";(408) 255-5900;"	";www.scandinaviandesigns.com/home/bedroom/mattresses;"	37.3055917";"	-122.0329597";41:47,9;420210;420210;"	7420210";"	";"	70080509";"	 ";"	 ";"	 ";"	 ";"	NO        ";15501;SIMMONS;Serta Simmons Bedding;SSB;Los Angeles;Los Angeles_07;;;;NO;0;;0;Jeff;Moran;100258;Moran, Jeff (Rep MRN);Rep MRN;100258;;;;4;4;4;
3326;Dawson Furniture;2542 Highway 62 W;;Pocahontas;AR;"	72455";(870) 892-3881;"	";;"	36.2577571";"	-90.9942501";41:48,0;410999;410999;"	7410999";"	";"	90002638";"	 ";"	 ";"	 ";"	 ";"	NO        ";15065;SIMMONS;Serta Simmons Bedding;SSB;Houston;Houston_06;;;;NO;0;;0;Aaron;Reigle;102028;Morgan, Mickey (Rep MMR);Rep MMR;101757;;;;8;;4;
3355;Olsen Furniture;414 W. Franklin;;Shelton;WA;"	98584";(360) 426-4702;"	";;"	47.214619";"	-123.10419";00:00,0;215574;215574;"	7215574";"	";"	90002256";"	 ";"	 ";"	 ";"	 ";"	NO        ";16580;SIMMONS;Serta Simmons Bedding;SSB;Seattle;Seattle_00;;;;NO;0;olsenfurniture@hccnet;0;Brandon;Ware;102118;Ramsden, Marilyn (Rep MRM);Rep MRM;101761;;;;0;0;4;
3360;Selmer's Furniture;419 E. Wishkah Street;;Aberdeen;WA;"	98520";(360) 532-2260;"	";;"	46.9761731";"	-123.813406";41:48,0;7302049;7302049;"	7302049";"	";"	90002567";"	 ";"	 ";"	 ";"	 ";"	NO        ";16581;SIMMONS;Serta Simmons Bedding;SSB;Corporate;Corporate;;;;NO;0;;0;Heather;Redman;102032;Morrissey, Heather (Rep HMO);Rep HMO;101670;;;;0;0;4;
3419;Sleep EZ Mattress;1552 W. Olympic Blvd.;;Los Angeles;CA;"	90026";(213) 738-5000;"	";;"	34.0488704";"	-118.2741747";41:48,1;48230;48230;"	748230";"	";"	90004157";"	 ";"	 ";"	 ";"	 ";"	NO        ";15503;SIMMONS;Serta Simmons Bedding;SSB;Corporate;Corporate;;;;NO;0;;0;Heather;Redman;102032;Morrissey, Heather (Rep HMO);Rep HMO;101670;;;;24;0;4;
3510;Schewel Furniture;3602 Ferncliff Avenue;;Roanoke;VA;"	24017";(540) 366-7246;"	";https://www.schewels.com/by-category/matr/Mattresses.html;"	37.3068572";"	-79.9835638";41:48,2;428585;250274;"	7408866";"	";"	90002623";"	 ";"	 ";"	 ";"	 ";"	yes       ";16584;SIMMONS;Store Success;East;North East 2;North East 2_07;;;;YES;0;;0;Lee;Martin;101621;Bookbinder, Rachel (Rep RBO);Rep RBO;101637;;;;12;0;4;
3512;Schewel Furniture;305 West Main Street;;Wytheville;VA;"	24382";(276) 228-3388;"	";https://www.schewels.com/by-category/matr/Mattresses.html;"	36.9480899";"	-81.0850464";41:48,2;7408866;7408866;"	7408866";"	";"	90002623";"	 ";"	 ";"	 ";"	 ";"	yes       ";25454;SIMMONS;Store Success;East;North East 2;North East 2_07;;;;YES;0;;0;Lee;Martin;101621;Bookbinder, Rachel (Rep RBO);Rep RBO;101637;;;;12;0;4;
3513;Schewel Furniture;949  East Stuart Drive;;Galax;VA;"	24333";(276) 236-2151;"	";https://www.schewels.com/by-category/matr/Mattresses.html;"	36.6775812";"	-80.8970645";41:48,2;7408866;7408866;"	7408866";"	";"	90002623";"	 ";"	 ";"	 ";"	 ";"	yes       ";25455;SIMMONS;Store Success;East;North East 2;North East 2_07;;;;YES;0;;0;Lee;Martin;101621;Bookbinder, Rachel (Rep RBO);Rep RBO;101637;;;;12;4;4;
3530;Mattress City;1311 SW 1st Ct;;Pompano Beach;FL;"	33069";(954) 781-8071;"	";;"	26.2306238";"	-80.1423367";14:37,1;420907;420907;"	7420907";"	";"	90002843";"	 ";"	 ";"	 ";"	 ";"	NO        ";16585;SIMMONS;Serta Simmons Bedding;SSB;Florida;Florida_05;;;;NO;0;;1;Donald;Kirisits;101785;Westerman, Justin (REP JWE);REP JWE;101544;;;;12;;4;
3531;Bishop Parker;3443 MCGehee Rd;;Montgomery;AL;"	36111";(334) 269-0079;"	";www.bishopparker.com;"	32.3805826";"	-86.3101361";41:48,3;7300032;7300032;"	7300032";"	";"	70080298";"	 ";"	 ";"	 ";"	 ";"	NO        ";14796;SIMMONS;Serta Simmons Bedding;SSB;Nashville;Nashville_01;;;;NO;0;cowens0755@charter.net;0;Tracy;Calamas;101786;Webb, Dennis (Rep WEB);Rep WEB;101189;;;;6;0;4;
3540;Mattresses  More;100 N State Rd 7;;Margate;FL;"	33063";(954) 975-7446;"	";mymattressesandmore.com/;"	26.2311207";"	-80.2039504";00:00,0;423405;423405;"	7423405";"	";"	70080290";"	 ";"	 ";"	 ";"	 ";"	NO        ";16586;SIMMONS;Serta Simmons Bedding;SSB;Florida;Florida_06;;;;NO;0;;0;Jorge;Martinez;101560;Westerman, Justin (REP JWE);REP JWE;101544;;;;0;0;4;
3551;Chandler Furniture;Hwy 245 South;P.O. Box 189;Okolona;MS;"	38860";(662) 447-5751;"	";;"	34.0017786";"	-88.7553862";;6718;6718;"	76718";"	";"	90004770";"	 ";"	 ";"	 ";"	 ";"	NO        ";16587;SIMMONS;Serta Simmons Bedding;SSB;Corporate;Corporate;;;;NO;0;;0;Alicia;Lomber;102091;Morrissey, Heather (Rep HMO);Rep HMO;101670;;;;8;;4;
3569;Sleepy Hollow Sleep Shop;2524 E State St;;Salem;OH;"	44460";(330) 332-1313;"	";www.sleepyhollowsleepshop.com/;"	40.9013923";"	-80.8245243";41:48,3;7145128;7145128;"	7145128";"	";"	70080344";"	 ";"	 ";"	 ";"	 ";"	NO        ";16589;SIMMONS;Store Success;West;Mid West 2;Mid West 2_06;;;;YES;0;;0;David;Gliozzi;102050;Sipe, Adam (Rep SAD);Rep SAD;101605;;;;12;8;4;
3570;Sleepy Hollow Sleep Shop;380 Boardman Poland Rd;;Boardman;OH;"	44512";(330) 629-9191;"	";www.sleepyhollowsleepshop.com/;"	41.024919";"	-80.647734";41:48,4;7145128;7145128;"	7145128";"	";"	70080344";"	 ";"	 ";"	 ";"	 ";"	NO        ";16590;SIMMONS;Store Success;West;Mid West 2;Mid West 2_06;;;;YES;0;;0;David;Gliozzi;102050;Sipe, Adam (Rep SAD);Rep SAD;101605;;;;12;8;4;
3572;Sleepy Hollow Sleep Shop;1523 Niles Cortland Rd SE;;Warren;OH;"	44484";(330) 652-3838;"	";www.sleepyhollowsleepshop.com/;"	41.2215341";"	-80.7402094";41:48,4;7145128;7145128;"	7145128";"	";"	70080344";"	 ";"	 ";"	 ";"	 ";"	NO        ";16591;SIMMONS;Store Success;West;Mid West 2;Mid West 2_06;;;;YES;0;;0;David;Gliozzi;102050;Sipe, Adam (Rep SAD);Rep SAD;101605;;;;12;8;4;
3575;Sleepy Hollow Sleep Shop;5860 Mahoning Ave;;Austintown;OH;"	44515";(330) 793-8333;"	";www.sleepyhollowsleepshop.com/;"	41.099975";"	-80.7715373";41:48,4;7145128;7145128;"	7145128";"	";"	70080344";"	 ";"	 ";"	 ";"	 ";"	NO        ";16592;SIMMONS;Store Success;West;Mid West 2;Mid West 2_06;;;;YES;0;;0;David;Gliozzi;102050;Sipe, Adam (Rep SAD);Rep SAD;101605;;;;12;8;4;
3576;Furniture World;314 W Central Ave;;Petal;MS;"	39465";(601) 584-8494;"	";;"	31.3466995";"	-89.2704498";41:48,4;423543;423543;"	7423543";"	";"	90002902";"	 ";"	 ";"	 ";"	 ";"	NO        ";16593;SIMMONS;Serta Simmons Bedding;SSB;Nashville;Nashville_02;;;;NO;0;turnerandgladden@gmail.com;0;Jose;Budde;100902;Webb, Dennis (Rep WEB);Rep WEB;101189;;;;8;0;4;
3640;Gardner White Furniture;21100 West 8 Mile Road;;Southfield;MI;"	48075";(248) 357-1380;"	";http://www.gardner-white.com/mattresses/collections?filter=%257B%2522Brand%2522%253A%255B%252220015%2522%252C%252220016%2522%255D%257D;"	42.4447022";"	-83.2487924";00:00,0;161942;161942;"	7161942";"	";"	90002137";"	 ";"	 ";"	 ";"	 ";"	yes       ";16596;SIMMONS;Store Success;West;Mid West 2;Mid West 2_12;;;Black Diamond Preferred;YES;0;;0;Tom;Robinson;101347;Bickford, Guy (Rep BIK);Rep BIK;100517;;;;24;12;2;
3649;Gardner White Furniture;20999 Groesbeck;;Warren;MI;"	48089";(586) 774-8853;"	";http://www.gardner-white.com/mattresses/collections?filter=%257B%2522Brand%2522%253A%255B%252220015%2522%252C%252220016%2522%255D%257D;"	42.4512709";"	-83.0016434";12:18,7;161942;161942;"	7161942";"	";"	90002137";"	 ";"	 ";"	 ";"	 ";"	yes       ";29224;SIMMONS;Store Success;West;Mid West 2;Mid West 2_12;;;Black Diamond Preferred;YES;0;;0;Tom;Robinson;101347;Bickford, Guy (Rep BIK);Rep BIK;100517;;;;24;12;2;
3653;Gardner White Furniture;4400 East 14 Mile Road;;Warren;MI;"	48092";(810) 826-8300;"	";http://www.gardner-white.com/mattresses/collections?filter=%257B%2522Brand%2522%253A%255B%252220015%2522%252C%252220016%2522%255D%257D;"	42.5349754";"	-83.0640553";00:00,0;7161942;7161942;"	7161942";"	";"	90002137";"	 ";"	 ";"	 ";"	 ";"	yes       ";16597;SIMMONS;Store Success;West;Mid West 2;Mid West 2_12;;;Black Diamond Preferred;YES;0;;0;Tom;Robinson;101347;Bickford, Guy (Rep BIK);Rep BIK;100517;;;;24;0;2;
3659;Gardner White Furniture;7680 Telegraph Rd;;Taylor;MI;"	48180";(313) 295-1820;"	";http://www.gardner-white.com/mattresses/collections?filter=%257B%2522Brand%2522%253A%255B%252220015%2522%252C%252220016%2522%255D%257D;"	42.2524154";"	-83.2706272";00:00,0;7161942;7161942;"	7161942";"	";"	90002137";"	 ";"	 ";"	 ";"	 ";"	yes       ";16598;SIMMONS;Store Success;West;Mid West 2;Mid West 2_12;;;Black Diamond Preferred;YES;0;;0;Tom;Robinson;101347;Bickford, Guy (Rep BIK);Rep BIK;100517;;;;24;0;2;
3666;Gardner White Furniture;4945 Dixie Hwy;;Waterford;MI;"	48329";(248) 674-8990;"	";http://www.gardner-white.com/mattresses/collections?filter=%257B%2522Brand%2522%253A%255B%252220015%2522%252C%252220016%2522%255D%257D;"	42.6908653";"	-83.3881534";00:00,0;7161942;7161942;"	7161942";"	";"	90002137";"	 ";"	 ";"	 ";"	 ";"	yes       ";25461;SIMMONS;Store Success;West;Mid West 2;Mid West 2_12;;;Black Diamond Preferred;YES;0;;0;Tom;Robinson;101347;Bickford, Guy (Rep BIK);Rep BIK;100517;;;;24;0;2;
3722;Mattress Liquidators;46460 Gratiot Avenue;;Chesterfield;MI;"	48051";(586) 949-1416;"	";www.mattressliquidators.net;"	42.6412599";"	-82.8543351";41:48,6;426960;426960;"	7426960";"	";"	10140000";"	 ";"	 ";"	 ";"	 ";"	yes       ";16602;SIMMONS;Store Success;West;Mid West 2;Mid West 2_03;;;;YES;0;;0;Chris;Osowski;102051;Bickford, Guy (Rep BIK);Rep BIK;100517;;;;12;4;4;
3731;Unclaimed Freight;2130 South Dort Highway;;Flint;MI;"	48507";(810) 235-5050;"	";;"	43.0027464";"	-83.654619";41:48,6;423089;423089;"	7423089";"	";"	10140000";"	 ";"	 ";"	 ";"	 ";"	yes       ";16603;SIMMONS;Serta Simmons Bedding;SSB;Corporate;Corporate;;;;NO;0;;0;Guy;Bickford;100517;Bickford, Guy (Rep BIK);Rep BIK;100517;;;;1;;4;
3750;Gardner White Furniture;39453 Ford Rd;;Canton;MI;"	48187";(734) 844-3190;"	";http://www.gardner-white.com/mattresses/collections?filter=%257B%2522Brand%2522%253A%255B%252220015%2522%252C%252220016%2522%255D%257D;"	42.322608";"	-83.4297689";00:00,0;7161942;7161942;"	7161942";"	";"	90002137";"	 ";"	 ";"	 ";"	 ";"	yes       ";16606;SIMMONS;Store Success;West;Mid West 2;Mid West 2_12;;;Black Diamond Preferred;YES;0;;0;Tom;Robinson;101347;Bickford, Guy (Rep BIK);Rep BIK;100517;;;;24;0;2;
3817;Valley Furniture;380 Rohnert Park Expy W;;Rohnert Park;CA;"	94928";(707) 586-8836;"	";;"	38.3499707";"	-122.7185386";12:18,9;230367;230367;"	7230367";"	";"	90002301";"	 ";"	 ";"	 ";"	 ";"	NO        ";25470;SIMMONS;Serta Simmons Bedding;SSB;Los Angeles;Los Angeles_07;;;;NO;0;;0;Jeff;Moran;100258;Van Emmerik, Shawn (Rep SVE);Rep SVE;101570;;;;12;0;4;
3835;Sleep City;706 W Diversey Pkwy;;Chicago;IL;"	60614";(773) 661-0174;"	";;"	41.9327466";"	-87.6471044";41:48,8;451254;434094;"	7434094";"	";"	90003199";"	 ";"	 ";"	 ";"	 ";"	NO        ";29225;SIMMONS;Store Success;West;Mid West 1;Mid West 1_09;;;;YES;0;;0;Keith;McKay;101367;Heigl, Jeff (REP JEH);REP JEH;102027;;;;48;4;1;
3866;Mattress Direct;518 N. Telshor;;Las Cruces;NM;"	88011";(505) 524-2337;"	";;"	32.3220686";"	-106.750491";;9034;9034;"	79034";"	";"	90005372";"	 ";"	 ";"	 ";"	 ";"	yes       ";16616;SIMMONS;Serta Simmons Bedding;SSB;Corporate;Corporate;;;;NO;0;;0;Jack;Gomez;101531;Mersbach, Tom (REP TME);REP TME;101569;;;;24;0;4;
3882;Kaneohe Bay Marine Corps Exchange MWR;Marine Corps Exchange Annex;Building 1090;Kaneohe Bay MCBH;HI;"	96863";(808) 254-7566;"	";;"	21.4448191";"	-157.7441266";41:49,0;636340;417765;"	7417765";"	";"	30450000";"	 ";"	 ";"	 ";"	 ";"	NO        ";16617;SIMMONS;Serta Simmons Bedding;SSB;Corporate;Corporate;;;;NO;0;;0;Daniel;Reppe;101633;Mersbach, Tom (REP TME);REP TME;101569;;;;0;;4;
3888;Sonora Mattress Outlet;910 Mono Way;;Sonora;CA;"	95370";(209) 532-2048;"	";;"	37.9756917";"	-120.3673138";41:49,1;415686;415686;"	7415686";"	";"	70080491";"	 ";"	 ";"	 ";"	 ";"	NO        ";15511;SIMMONS;Serta Simmons Bedding;SSB;Los Angeles;Los Angeles_05;;;;NO;0;;0;Janet;Dechambeau;101811;Van Emmerik, Shawn (Rep SVE);Rep SVE;101570;;;;12;0;4;
3916;Joy's Furniture;3512 Lockwood Dr.;;Lakeside;AZ;"	85929";(928) 368-5542;"	";;"	34.1717215";"	-110.0061445";41:49,1;180703;180703;"	7301470";"	";"	90002552";"	 ";"	 ";"	 ";"	 ";"	NO        ";15221;SIMMONS;Store Success;West;South West;South West_01;;;;YES;0;;0;Ryan;Kiley;101612;Romeo, Michael (Rep ROM);Rep ROM;101109;;;;6;4;8;
3929;Owen Suter's;4408 W Broad St;;Richmond;VA;"	23230";(804) 359-9569;"	";;"	37.577232";"	-77.4863595";41:49,1;419544;419544;"	7419544";"	";"	90002805";"	 ";"	 ";"	 ";"	 ";"	yes       ";25475;SIMMONS;Serta Simmons Bedding;SSB;Corporate;Corporate;;;;NO;0;owen.suter@erols.com;0;Rachel;Bookbinder;101637;Mersbach, Tom (REP TME);REP TME;101569;;;;8;;4;
3989;Sauder Furniture;317 N Main St;;Roanoke;IL;"	61561";(309) 923-5221;"	";www.shopsauderfurniture.com;"	40.7963025";"	-89.1968394";41:49,2;712914;712914;"	712914";"	";"	90002096";"	 ";"	 ";"	 ";"	 ";"	NO        ";16619;SIMMONS;Serta Simmons Bedding;SSB;Chicago;Chicago_03;;;;NO;0;hsauder@verizon.net;0;Scott;Hayes;101715;Heigl, Jeff (REP JEH);REP JEH;102027;;;;6;0;8;
3992;Wright's Furniture;113 N. Main;;Dieterich;IL;"	62424";(217) 925-5228;"	";www.wrightsfurniture.com;"	39.0612431";"	-88.3803314";41:49,2;28753;28753;"	7300206";"	";"	90002520";"	 ";"	 ";"	 ";"	 ";"	NO        ";16620;SIMMONS;Serta Simmons Bedding;SSB;Chicago;Chicago_00;;;;NO;0;;0;Scott;Hayes;101715;Heigl, Jeff (REP JEH);REP JEH;102027;;;;24;0;4;
4035;American Furniture Guild;1141 S Pacific Ave;;San Pedro;CA;"	90731";(310) 548-1253;"	";;"	33.7334842";"	-118.2882097";41:49,3;253590;253590;"	7253590";"	";"	90002434";"	 ";"	 ";"	 ";"	 ";"	NO        ";15512;SIMMONS;Serta Simmons Bedding;SSB;Los Angeles;Los Angeles_08;;;;NO;0;;0;Sergio;Martire;101812;Van Emmerik, Shawn (Rep SVE);Rep SVE;101570;;;;0;0;4;
4042;Laurels Fine Furniture;2606 Sepulveda Boulevard;;Torrance;CA;"	90505";(310) 534-5800;"	";;"	33.8220365";"	-118.3306215";12:18,9;420739;420739;"	7420739";"	";"	90002838";"	 ";"	 ";"	 ";"	 ";"	NO        ";15513;SIMMONS;Serta Simmons Bedding;SSB;Corporate;Corporate;;;;NO;0;;0;Heather;Redman;102032;Morrissey, Heather (Rep HMO);Rep HMO;101670;;;;8;0;4;
4068;Ashley HOMESTORE;6826 US Highway 11;;Potsdam;NY;"	13676";(315) 265-3217;"	";www.ashleyfurniturehomestore.com;"	44.6348776";"	-75.0767616";41:49,3;241869;241869;"	7241869";"	";"	70080205";"	 ";"	 ";"	 ";"	 ";"	NO        ";16622;SIMMONS;Serta Simmons Bedding;SSB;Boston;Boston_02;;;;NO;0;mamu5@northnet.org;0;Peter;O'Brien;101768;Marano, Jacki (Rep JMA);Rep JMA;101558;;;;12;0;4;
4070;Ashley HOMESTORE;28 Andrews St;;Massena;NY;"	13662";(315) 769-6069;"	";www.ashleyfurniturehomestore.com;"	44.9322078";"	-74.8941153";41:49,3;241869;241869;"	7241869";"	";"	70080205";"	 ";"	 ";"	 ";"	 ";"	NO        ";16623;SIMMONS;Serta Simmons Bedding;SSB;Boston;Boston_02;;;;NO;0;;0;Peter;O'Brien;101768;Marano, Jacki (Rep JMA);Rep JMA;101558;;;;12;0;4;
4072;Southside Furniture;5007 Old Bullard Rd;;Tyler;TX;"	75703";(903) 593-4161;"	";;"	32.2957413";"	-95.3058134";41:49,3;259712;259712;"	7627819";"	";"	90004635";"	 ";"	 ";"	 ";"	 ";"	yes       ";16624;SIMMONS;Serta Simmons Bedding;SSB;Corporate;Corporate;;;;NO;0;afhtylertx@yahoo.com;0;Weston;King;102058;Mersbach, Tom (REP TME);REP TME;101569;;;;6;;4;
4080;Swann Furniture Gallery;7328 Old Jacksonville Highway;;Tyler;TX;"	75703";(903) 561-6400;"	";;"	32.2658456";"	-95.3407922";41:49,4;6072;6072;"	76072";"	";"	90004546";"	 ";"	 ";"	 ";"	 ";"	yes       ";16625;SIMMONS;Serta Simmons Bedding;SSB;Corporate;Corporate;;;;NO;0;;0;Weston;King;102058;Mersbach, Tom (REP TME);REP TME;101569;;;;12;;4;
4158;Black's Home Furnishings;204 S Broadway St;;Yreka;CA;"	96097";(530) 842-3876;"	";;"	41.7306334";"	-122.6363547";41:49,5;240696;240696;"	7240696";"	";"	90002354";"	 ";"	 ";"	 ";"	 ";"	NO        ";15516;SIMMONS;Serta Simmons Bedding;SSB;Los Angeles;Los Angeles_03;;;;NO;0;;0;Michael;Kiley;101809;Van Emmerik, Shawn (Rep SVE);Rep SVE;101570;;;;1;0;4;
4163;Curry's Furniture;335 N Main St;;Lakeport;CA;"	95453";(707) 263-4415;"	";;"	39.0442526";"	-122.9154767";;428740;428740;"	7428740";"	";"	90002969";"	 ";"	 ";"	 ";"	 ";"	NO        ";15517;SIMMONS;Serta Simmons Bedding;SSB;Los Angeles;Los Angeles_07;;;;NO;0;;1;Jeff;Moran;100258;Van Emmerik, Shawn (Rep SVE);Rep SVE;101570;;;;18;;4;
4164;Curry's Furniture;245 E Standley St;;Ukiah;CA;"	95482";(707) 462-2901;"	";;"	39.1504748";"	-123.2060342";;428740;428740;"	7428740";"	";"	90002969";"	 ";"	 ";"	 ";"	 ";"	NO        ";15518;SIMMONS;Serta Simmons Bedding;SSB;Los Angeles;Los Angeles_07;;;;NO;0;;0;Jeff;Moran;100258;Van Emmerik, Shawn (Rep SVE);Rep SVE;101570;;;;18;0;4;
4183;JM Furniture;3333 N Carson St;;Carson City;NV;"	89706";(775) 883-3333;"	";www.jmfurniture.net;"	39.1895784";"	-119.7711811";12:18,9;422740;422740;"	7422740";"	";"	90002881";"	 ";"	 ";"	 ";"	 ";"	NO        ";16632;SIMMONS;Store Success;West;North West;North West_02;;;;YES;0;;0;Ikenna;Obiagwu;102125;Kiley, Michael (Rep MK1);Rep MK1;101809;;;;6;4;8;
4186;Beautyrest Sleep Gallery;207 Business Loop 70 E;;Columbia;MO;"	65203";(573) 443-8987;"	";www.sleepgallery.biz;"	38.9651023";"	-92.3346048";41:49,6;216894;216894;"	7216894";"	";"	70080453";"	 ";"	 ";"	 ";"	 ";"	NO        ";16633;SIMMONS;Serta Simmons Bedding;SSB;Chicago;Chicago_05;;;;NO;0;;0;Jill;Hall;101798;Heigl, Jeff (REP JEH);REP JEH;102027;;;;0;0;4;
4248;Slumberland Furniture;2121 Frontage Rd;;Waite Park;MN;"	56387";(320) 251-1024;"	";https://www.slumberland.com/furniture/departments/mattresses/beautyrest-beautysleep-mattresses;"	45.5548556";"	-94.2450488";41:49,6;717921;717921;"	717921";"	";"	50200000";"	 ";"	 ";"	 ";"	 ";"	NO        ";25480;SIMMONS;Store Success;West;Mid West 1;Mid West 1_10;;;;YES;0;;0;Aaron;Korus;101852;Haugland, Dan (Rep DHU);Rep DHU;100940;;;;48;9;1;
4283;Slumberland Furniture;1711 E Madison Ave;;Mankato;MN;"	56001";(507) 345-8916;"	";https://www.slumberland.com/furniture/departments/mattresses/beautyrest-beautysleep-mattresses;"	44.1662767";"	-93.9593851";41:49,7;17921;17921;"	717921";"	";"	50200000";"	 ";"	 ";"	 ";"	 ";"	NO        ";25481;SIMMONS;Store Success;West;Mid West 1;Mid West 1_02;;;;YES;0;;0;Ryan;Huibregtse;101894;Haugland, Dan (Rep DHU);Rep DHU;100940;;;;12;6;4;
4340;Thomas Electric  Furniture;45 N Main St;;Malad City;ID;"	83252";(208) 766-2665;"	";;"	42.1863876";"	-112.2452394";12:19,1;422544;422544;"	7422544";"	";"	90002877";"	 ";"	 ";"	 ";"	 ";"	yes       ";16637;SIMMONS;Simmons Bedding;Simmons;Simmons West;West 1;;;;NO;0;;0;Brad;Searle;101643;Mersbach, Tom (REP TME);REP TME;101569;;;;8;0;4;
4342;Western Living;1100 West Highway 40;;Vernal;UT;"	84078";(435) 789-0525;"	";;"	40.4516075";"	-109.5495165";41:49,8;418061;418061;"	7418861";"	";"	10150000";"	 ";"	 ";"	 ";"	 ";"	yes       ";16638;SIMMONS;Serta Simmons Bedding;SSB;Corporate;Corporate;;;;NO;0;wliving@easilink.com;0;Jacob ;Bell;101486;Mersbach, Tom (REP TME);REP TME;101569;;;;0;;4;
4344;Furniture Village;2039 Rockbridge Rd;;Stone Mountain;GA;"	30087";(770) 469-2198;"	";;"	33.8213616";"	-84.1144467";41:49,9;417227;417227;"	72344";"	";"	90002320";"	 ";"	 ";"	 ";"	 ";"	NO        ";25483;SIMMONS;Serta Simmons Bedding;SSB;Corporate;Corporate;;;;NO;0;;0;Amanda;Travis;102079;Morrissey, Heather (Rep HMO);Rep HMO;101670;;;;8;0;4;
4365;Value City Furniture;4475 Monroe Street;;Toledo;OH;"	43613";(419) 473-2405;"	31";http://www.valuecityfurniture.com/search/v/mattresses/brands/beautyrest;"	41.686225";"	-83.6189671";00:00,0;7244326;7244326;"	7244326";"	";"	10030000";"	 ";"	 ";"	 ";"	 ";"	yes       ";16641;SIMMONS;Store Success;West;Mid West 2;Mid West 2_03;;;Black Diamond Preferred;YES;0;;0;Chris;Osowski;102051;Moss, Jim (Rep JIM);Rep JIM;101949;;;;24;0;2;
4373;Value City Furniture;33377 Van Dyke Avenue;;Sterling Heights;MI;"	48312";(810) 558-7880;"	49";http://www.valuecityfurniture.com/search/v/mattresses/brands/beautyrest;"	42.5397507";"	-83.0324562";41:50,0;7244326;7244326;"	7244326";"	";"	10030000";"	 ";"	 ";"	 ";"	 ";"	yes       ";16642;SIMMONS;Store Success;West;Mid West 2;Mid West 2_12;;;Black Diamond Preferred;YES;0;;0;Tom;Robinson;101347;Moss, Jim (Rep JIM);Rep JIM;101949;;;;24;0;2;
4386;Value City Furniture;23859 Eureka Road;;Taylor;MI;"	48180";(734) 287-0401;"	68";http://www.valuecityfurniture.com/search/v/mattresses/brands/beautyrest;"	42.1976039";"	-83.2663283";41:50,0;7244326;7244326;"	7244326";"	";"	10030000";"	 ";"	 ";"	 ";"	 ";"	yes       ";16643;SIMMONS;Store Success;West;Mid West 2;Mid West 2_12;;;Black Diamond Preferred;YES;0;;0;Tom;Robinson;101347;Moss, Jim (Rep JIM);Rep JIM;101949;;;;24;12;2;
4399;Value City Furniture;37001 Warren Rd;;Westland;MI;"	48185";(734) 729-6666;"	79";http://www.valuecityfurniture.com/search/v/mattresses/brands/beautyrest;"	42.3351916";"	-83.4036489";41:50,1;7244326;7244326;"	7244326";"	";"	10030000";"	 ";"	 ";"	 ";"	 ";"	yes       ";16644;SIMMONS;Store Success;West;Mid West 2;Mid West 2_12;;;Black Diamond Preferred;YES;0;;0;Tom;Robinson;101347;Moss, Jim (Rep JIM);Rep JIM;101949;;;;24;12;2;
4408;Value City Furniture;6520 Carlisle Pk;;Mechanicsburg;PA;"	17050";(717) 766-2700;"	92";http://www.valuecityfurniture.com/search/v/mattresses/brands/beautyrest;"	40.248522";"	-77.0254536";41:50,2;7244326;7244326;"	7244326";"	";"	10030000";"	 ";"	 ";"	 ";"	 ";"	yes       ";16645;SIMMONS;Store Success;East;North East 2;North East 2_09;;;Black Diamond Preferred;YES;0;;0;Maria;Sheidy;101671;Moss, Jim (Rep JIM);Rep JIM;101949;;;;12;0;4;
4414;Value City Furniture;5701 Mercury Dr;;Dearborn;MI;"	48126";(313) 271-0100;"	101";http://www.valuecityfurniture.com/search/v/mattresses/brands/beautyrest;"	42.327595";"	-83.2044161";41:50,3;7244326;7244326;"	7244326";"	";"	10030000";"	 ";"	 ";"	 ";"	 ";"	yes       ";16647;SIMMONS;Store Success;West;Mid West 2;Mid West 2_03;;;Black Diamond Preferred;YES;0;;0;Chris;Osowski;102051;Moss, Jim (Rep JIM);Rep JIM;101949;;;;24;0;2;
4415;Value City Furniture;43620 W Oaks Dr;;Novi;MI;"	48377";(248) 347-8100;"	103";http://www.valuecityfurniture.com/search/v/mattresses/brands/beautyrest;"	42.4923962";"	-83.4814936";41:50,4;7244326;7244326;"	7244326";"	";"	10030000";"	 ";"	 ";"	 ";"	 ";"	yes       ";25486;SIMMONS;Store Success;West;Mid West 2;Mid West 2_12;;;Black Diamond Preferred;YES;0;;0;Tom;Robinson;101347;Moss, Jim (Rep JIM);Rep JIM;101949;;;;24;0;2;
4508;Sleep World;1467 N Susquehanna Trl;Susquehanna Valley Mall;Selinsgrove;PA;"	17870";(570) 743-2100;"	";;"	40.8298574";"	-76.8417593";41:50,6;416227;416227;"	7416227";"	";"	70080101";"	 ";"	 ";"	 ";"	 ";"	NO        ";25488;SIMMONS;Store Success;East;North East 1;North East 1_12;;;;YES;0;;0;Christopher;Batyko;101539;Harrington, John (Rep JHR);Rep JHR;101773;;;;12;4;4;
4512;Wilburs Furniture;27 W Chicago St;;Coldwater;MI;"	49036";(517) 278-8412;"	";;"	41.9407242";"	-85.0026516";41:50,6;28209;28209;"	728209";"	";"	10140000";"	 ";"	 ";"	 ";"	 ";"	yes       ";16652;SIMMONS;Serta Simmons Bedding;SSB;Corporate;Corporate;;;;NO;0;Wilbur@cbpu.com;0;Guy;Bickford;100517;Mersbach, Tom (REP TME);REP TME;101569;;;;24;;4;
4617;Gouse's Fine Furniture;24081 South Tamiami Trail;;Bonita Springs;FL;"	34134";(239) 947-6008;"	";;"	26.389466";"	-81.808697";;411447;411447;"	7411447";"	";"	70080292";"	 ";"	 ";"	 ";"	 ";"	NO        ";16665;SIMMONS;Serta Simmons Bedding;SSB;Florida;Florida_06;;;;NO;0;;0;Jorge;Martinez;101560;Westerman, Justin (REP JWE);REP JWE;101544;;;;24;0;4;
4648;Sonny's Appliance  Bedding;10651 US Highway 301;;Dade City;FL;"	33525";(352) 567-6224;"	";;"	28.3130232";"	-82.1884756";41:51,0;427241;427241;"	7427241";"	";"	90002931";"	 ";"	 ";"	 ";"	 ";"	NO        ";25501;SIMMONS;Serta Simmons Bedding;SSB;Corporate;Corporate;;;;NO;0;sonappl@aol.com;0;Alicia;Lomber;102091;Morrissey, Heather (Rep HMO);Rep HMO;101670;;;;8;0;4;
4667;White Mattress Gallery;1010 S Main St;;Roswell;NM;"	88203";(505) 624-1000;"	";;"	33.3820397";"	-104.523185";;257690;257690;"	7257690";"	";"	90002475";"	 ";"	 ";"	 ";"	 ";"	yes       ";16673;SIMMONS;Serta Simmons Bedding;SSB;Corporate;Corporate;;;;NO;0;;0;Jack;Gomez;101531;Mersbach, Tom (REP TME);REP TME;101569;;;;8;;4;
4670;Saul Furnishings;301 N. Pagosa Blvd. Unit 9 Building B;;Pagosa Springs;CO;"	81147";(970) 731-1700;"	";;"	37.258087";"	-107.081332";;422244;422244;"	7431989";"	";"	90003100";"	 ";"	 ";"	 ";"	 ";"	NO        ";25502;SIMMONS;Serta Simmons Bedding;SSB;Corporate;Corporate;;;;NO;0;;0;Alicia;Lomber;102091;Morrissey, Heather (Rep HMO);Rep HMO;101670;;;;12;;4;
4684;Factory Mattress ;12730  I-10 N;Suite 150;San Antonio;TX;"	78230";(210) 694-4242;"	";www.factorymattresstexas.com;"	29.5622904";"	-98.5930707";;7174978;7174978;"	7174978";"	";"	90002165";"	 ";"	 ";"	 ";"	 ";"	yes       ";25503;SIMMONS;Serta Simmons Bedding;SSB;Corporate;Corporate;;;;NO;0;;0;Jack;Gomez;101531;Mersbach, Tom (REP TME);REP TME;101569;;;;12;0;4;
4687;Knight Furniture Company;108 W Lamar St;;Sherman;TX;"	75090";(903) 893-9484;"	";;"	33.6350009";"	-96.6092044";41:51,1;244680;244680;"	7244680";"	";"	90002372";"	 ";"	 ";"	 ";"	 ";"	yes       ";16675;SIMMONS;Serta Simmons Bedding;SSB;Corporate;Corporate;;;;NO;0;louanne@knightfurniture.com;0;Weston;King;102058;Mersbach, Tom (REP TME);REP TME;101569;;;;6;;4;
4688;Knight Furniture Company;2003 East Highway 82;;Gainesville;TX;"	76240";(940) 665-4101;"	";;"	33.6431758";"	-97.1242669";41:51,1;244680;244680;"	7244680";"	";"	90002372";"	 ";"	 ";"	 ";"	 ";"	yes       ";16676;SIMMONS;Serta Simmons Bedding;SSB;Corporate;Corporate;;;;NO;0;;0;Weston;King;102058;Mersbach, Tom (REP TME);REP TME;101569;;;;6;;4;
4700;Factory Mattress ;13945 N Highway 183;Ste B-1;Austin;TX;"	78717";(512) 331-3888;"	";www.factorymattresstexas.com;"	30.4724585";"	-97.7969606";;7174978;7174978;"	7174978";"	";"	90002165";"	 ";"	 ";"	 ";"	 ";"	yes       ";25504;SIMMONS;Serta Simmons Bedding;SSB;Corporate;Corporate;;;;NO;0;;0;Jack;Gomez;101531;Mersbach, Tom (REP TME);REP TME;101569;;;;12;0;4;
4701;Factory Mattress ;5601 Brodie Lane;;Austin;TX;"	78745";(512) 892-6189;"	";www.factorymattresstexas.com;"	30.2263367";"	-97.819664";;7174978;7174978;"	7174978";"	";"	90002165";"	 ";"	 ";"	 ";"	 ";"	yes       ";25505;SIMMONS;Serta Simmons Bedding;SSB;Corporate;Corporate;;;;NO;0;;0;Jack;Gomez;101531;Mersbach, Tom (REP TME);REP TME;101569;;;;12;0;4;
4731;E and E Furniture;111 East D Street;;Iron Mountain;MI;"	49801";(906) 774-2388;"	";;"	45.8156514";"	-88.066795";41:51,1;231240;231232;"	7231232";"	";"	10140000";"	 ";"	 ";"	 ";"	 ";"	yes       ";16679;SIMMONS;Serta Simmons Bedding;SSB;Corporate;Corporate;;;;NO;0;;0;Guy;Bickford;100517;Mersbach, Tom (REP TME);REP TME;101569;;;;24;;4;
4732;E and E Furniture;2323 North Lincoln Road;;Escanaba;MI;"	49829";(906) 786-7409;"	";;"	45.7759468";"	-87.0833663";41:51,1;231240;231232;"	7231232";"	";"	10140000";"	 ";"	 ";"	 ";"	 ";"	yes       ";25507;SIMMONS;Serta Simmons Bedding;SSB;Corporate;Corporate;;;;NO;0;;0;Guy;Bickford;100517;Mersbach, Tom (REP TME);REP TME;101569;;;;24;;4;
4733;Mitten's Furniture;171 South Central Avenue;;Marshfield;WI;"	54449";(715) 387-8605;"	";www.mittensfurniture.com;"	44.6659559";"	-90.173701";;413744;413744;"	7260280";"	";"	90002488";"	 ";"	 ";"	 ";"	 ";"	NO        ";16680;SIMMONS;Serta Simmons Bedding;SSB;Minneapolis;Minneapolis_06;;;;NO;0;;0;Troy;Richmond;101803;McKittrick, Matt (Rep MMC);Rep MMC;101759;;;;24;0;4;
4745;West Bend Furniture and Design;1411 W Washington St;;West Bend;WI;"	53095";(262) 338-1666;"	";;"	43.4264684";"	-88.195481";;130120;130120;"	7130120";"	";"	90002098";"	 ";"	 ";"	 ";"	 ";"	NO        ";16683;SIMMONS;Serta Simmons Bedding;SSB;Corporate;Corporate;;;;NO;0;johnc@westbendfurniture.com;0;Heather;Redman;102032;Morrissey, Heather (Rep HMO);Rep HMO;101670;;;;8;0;4;
4748;McClain Furniture;1305 S 32nd St;;Muskogee;OK;"	74401";(918) 687-6561;"	";;"	35.73867";"	-95.40377";41:51,2;1049;1049;"	71049";"	";"	90002082";"	 ";"	 ";"	 ";"	 ";"	yes       ";16684;SIMMONS;Serta Simmons Bedding;SSB;Corporate;Corporate;;;;NO;0;;0;Weston;King;102058;Mersbach, Tom (REP TME);REP TME;101569;;;;8;;4;
4864;Braslau's Home Furnishings;4148 S Staples St;;Corpus Christi;TX;"	78411";(361) 854-4900;"	";;"	27.7264795";"	-97.378513";41:51,3;175778;175778;"	7301362";"	";"	90002551";"	 ";"	 ";"	 ";"	 ";"	yes       ";16685;SIMMONS;Serta Simmons Bedding;SSB;Corporate;Corporate;;;;NO;0;;0;Jack;Gomez;101531;Mersbach, Tom (REP TME);REP TME;101569;;;;12;;4;
4885;Moore's Home Furnishings;120 Harper Rd;;Kerrville;TX;"	78028";(830) 895-5311;"	";;"	30.0604619";"	-99.1640187";41:51,3;5082;5082;"	75082";"	";"	90004198";"	 ";"	 ";"	 ";"	 ";"	yes       ";16686;SIMMONS;Serta Simmons Bedding;SSB;Corporate;Corporate;;;;NO;0;;0;Jack;Gomez;101531;Mersbach, Tom (REP TME);REP TME;101569;;;;6;;4;
4887;Texas Discount Furniture;5802 EAST DRIVE;;Laredo;TX;"	78041";(956) 791-3830;"	";;"	27.55121";"	-99.475976";41:51,4;256932;256932;"	7256932";"	";"	90002466";"	 ";"	 ";"	 ";"	 ";"	yes       ";16687;SIMMONS;Serta Simmons Bedding;SSB;Corporate;Corporate;;;;NO;0;josetexas80@yahoo.com;0;Jack;Gomez;101531;Mersbach, Tom (REP TME);REP TME;101569;;;;24;;4;
4888;Whalens Furniture McAllen;1000 E. Bus. 83;;McAllen;TX;"	78501";(956) 686-8371;"	";;"	26.1992445";"	-98.2101031";12:19,6;5546;5546;"	7300052";"	";"	90002509";"	 ";"	 ";"	 ";"	 ";"	yes       ";16688;SIMMONS;Serta Simmons Bedding;SSB;Corporate;Corporate;;;;NO;0;;0;Jack;Gomez;101531;Mersbach, Tom (REP TME);REP TME;101569;;;;12;;4;
4890;Lacks;1300 San Patricia Dr;;Pharr;TX;"	78577";(956) 702-3361;"	";www.lacksvalley.com;"	26.2078148";"	-98.19742";41:51,4;237379;237379;"	7237379";"	";"	90002334";"	 ";"	 ";"	 ";"	 ";"	yes       ";16690;SIMMONS;Store Success;West;South Central;South Central_03;;;;YES;0;KrisK@lacksvalley.com;0;Irving;Barajas;102072;Gomez, Jack (Rep GOM);Rep GOM;101531;;;;12;4;4;
4891;Lacks Galleria McAllen;1200 E Expressway 83;;McAllen;TX;"	78503";(956) 971-1900;"	";www.lacksvalley.com;"	26.1918026";"	-98.208368";41:51,4;237379;237379;"	7237379";"	";"	90002334";"	 ";"	 ";"	 ";"	 ";"	yes       ";25512;SIMMONS;Store Success;West;South Central;South Central_03;;;;YES;0;mauror@lacksvalley.com;0;Irving;Barajas;102072;Gomez, Jack (Rep GOM);Rep GOM;101531;;;;12;4;4;
4892;Lacks 10th St McAllen;2901 N 10th St;;McAllen;TX;"	78501";(956) 682-5266;"	";www.lacksvalley.com;"	26.2299686";"	-98.2265255";41:51,5;431622;237379;"	7237379";"	";"	90002334";"	 ";"	 ";"	 ";"	 ";"	yes       ";16691;SIMMONS;Store Success;West;South Central;South Central_03;;;;YES;0;jimh@lacksvalley.com;0;Irving;Barajas;102072;Gomez, Jack (Rep GOM);Rep GOM;101531;;;;12;4;4;
4894;Lacks Mission;925 W Business Highway 83;;Mission;TX;"	78572";(956) 585-1541;"	";www.lacksvalley.com;"	26.2134291";"	-98.3143031";41:51,5;237379;237379;"	7237379";"	";"	90002334";"	 ";"	 ";"	 ";"	 ";"	yes       ";16692;SIMMONS;Store Success;West;South Central;South Central_03;;;;YES;0;;0;Irving;Barajas;102072;Gomez, Jack (Rep GOM);Rep GOM;101531;;;;12;4;4;
4896;Lacks Harlingen Dixieland;802 Dixieland Rd;;Harlingen;TX;"	78552";(956) 421-2221;"	";www.lacksvalley.com;"	26.184621";"	-97.722631";41:51,5;237379;237379;"	7237379";"	";"	90002334";"	 ";"	 ";"	 ";"	 ";"	yes       ";16693;SIMMONS;Store Success;West;South Central;South Central_03;;;;YES;0;;0;Irving;Barajas;102072;Gomez, Jack (Rep GOM);Rep GOM;101531;;;;12;4;4;
4898;Lacks Galleria Brownsville;1405 Fm 802;;Brownsville;TX;"	78521";(956) 546-4262;"	";www.lacksvalley.com;"	25.9514332";"	-97.4969499";41:51,6;237379;237379;"	7237379";"	";"	90002334";"	 ";"	 ";"	 ";"	 ";"	yes       ";16694;SIMMONS;Store Success;West;South Central;South Central_03;;;;YES;0;;0;Irving;Barajas;102072;Gomez, Jack (Rep GOM);Rep GOM;101531;;;;12;4;4;
4899;Lacks Port Isabel;25 Queen Isabella;;Port Isabel;TX;"	78578";(956) 943-8744;"	";www.lacksvalley.com;"	26.0755938";"	-97.2103268";41:51,6;237379;237379;"	7237379";"	";"	90002334";"	 ";"	 ";"	 ";"	 ";"	yes       ";16695;SIMMONS;Store Success;West;South Central;South Central_03;;;;YES;0;;0;Irving;Barajas;102072;Gomez, Jack (Rep GOM);Rep GOM;101531;;;;12;4;4;
4939;Yamada Furniture;340 Kinoole St;;Hilo;HI;"	96720";(808) 935-1664;"	";;"	19.7215514";"	-155.0874367";12:19,8;206572;206572;"	7206572";"	";"	90002230";"	 ";"	 ";"	 ";"	 ";"	NO        ";16700;SIMMONS;Serta Simmons Bedding;SSB;Corporate;Corporate;;;;NO;0;;0;Lance;Matsuda;100334;Matsuda, Lance (Rep MAT);Rep MAT;100334;;;;0;;4;
4944;ABC Furniture whse;94-061 Leokane St;;Waipahu;HI;"	96797";(808) 676-0060;"	";;"	21.3740999";"	-158.0213451";14:40,8;414140;241041;"	7241041";"	";"	60130000";"	 ";"	 ";"	 ";"	 ";"	NO        ";25514;SIMMONS;Serta Simmons Bedding;SSB;Corporate;Corporate;;;;NO;0;;1;Lance;Matsuda;100334;Matsuda, Lance (Rep MAT);Rep MAT;100334;;;;0;;4;
4956;Forrest Hudgins Furniture;254 Main St N;;Cornelia;GA;"	30531";(706) 778-6316;"	";;"	34.5133993";"	-83.5280708";41:51,6;417751;417752;"	7417751";"	";"	90002762";"	 ";"	 ";"	 ";"	 ";"	NO        ";25515;SIMMONS;Serta Simmons Bedding;SSB;Corporate;Corporate;;;;NO;0;fhffurniture@alltel.net;0;Amanda;Travis;102079;Morrissey, Heather (Rep HMO);Rep HMO;101670;;;;12;;4;
4972;Leis Furniture;33 S Main St;;Monroeville;OH;"	44847";(419) 465-2271;"	";;"	41.243027";"	-82.694744";;12798;436172;"	7436172";"	";"	90003301";"	 ";"	 ";"	 ";"	 ";"	NO        ";16701;SIMMONS;Serta Simmons Bedding;SSB;Cincinnati;Cincinnati_00;;;;NO;0;;0;Ryan;Craig;101607;Hanna, Jeff (Rep JHA);Rep JHA;101758;;;;0;0;4;
4974;Newtowne Bed Center;340 Bluebell Dr NW;;New Philadelphia;OH;"	44663";(330) 339-8869;"	";;"	40.4963817";"	-81.4724953";41:51,6;7200989;7200989;"	7200989";"	";"	90002217";"	 ";"	 ";"	 ";"	 ";"	NO        ";25516;SIMMONS;Serta Simmons Bedding;SSB;Cincinnati;Cincinnati_06;;;;NO;0;;0;Kenneth;Gorski;101639;Hanna, Jeff (Rep JHA);Rep JHA;101758;;;;3;0;16;
4982;Moore Furniture Company;75 N Main St;;Jasper;GA;"	30143";(706) 692-2031;"	";;"	34.4691041";"	-84.4309234";41:51,7;2824;2824;"	72824";"	";"	90002499";"	 ";"	 ";"	 ";"	 ";"	NO        ";25517;SIMMONS;Serta Simmons Bedding;SSB;Atlanta;Atlanta_05;;;;NO;0;;0;Bobby;Fowler;101851;Lane, Bill (Rep BLN);Rep BLN;101753;;;;12;0;4;
4989;Moseley Furniture;5018 N Henry Blvd;;Stockbridge;GA;"	30281";(770) 474-4537;"	";;"	33.5452363";"	-84.2431171";12:19,8;302701;245281;"	7302701";"	";"	90002598";"	 ";"	 ";"	 ";"	 ";"	NO        ";16702;SIMMONS;Serta Simmons Bedding;SSB;Corporate;Corporate;;;;NO;0;;0;Amanda;Travis;102079;Morrissey, Heather (Rep HMO);Rep HMO;101670;;;;8;0;4;
4997;Mattress Showcase;3200 Cleveland Ave NW;;Canton;OH;"	44709";(330) 492-7492;"	";www.mattressshowcase.com;"	40.8338161";"	-81.3882694";41:51,7;7205161;7205161;"	7205161";"	";"	70080024";"	 ";"	 ";"	 ";"	 ";"	NO        ";16703;SIMMONS;Serta Simmons Bedding;SSB;Cincinnati;Cincinnati_06;;;;NO;0;;0;Kenneth;Gorski;101639;Hanna, Jeff (Rep JHA);Rep JHA;101758;;;;12;4;4;
4999;Mattress Showcase;4973 Tuscarawas Street West;;Canton;OH;"	44708";(330) 477-6611;"	";www.mattressshowcase.com;"	40.793464";"	-81.442525";41:51,7;7205161;7205161;"	7205161";"	";"	70080024";"	 ";"	 ";"	 ";"	 ";"	NO        ";16704;SIMMONS;Serta Simmons Bedding;SSB;Cincinnati;Cincinnati_06;;;;NO;0;;0;Kenneth;Gorski;101639;Hanna, Jeff (Rep JHA);Rep JHA;101758;;;;12;4;4;
5061;Mattress Land by Sleep Fit;288 W Shaw Ave.;;Clovis;CA;"	93612";(559) 323-5085;"	";http://www.sleepfit.com/our-brands/simmons.asp;"	36.8082245";"	-119.7162475";;582325;582325;"	7582325";"	";"	90004430";"	 ";"	 ";"	 ";"	 ";"	NO        ";25518;SIMMONS;Serta Simmons Bedding;SSB;Los Angeles;Los Angeles_05;;;;NO;0;;0;Janet;Dechambeau;101811;Van Emmerik, Shawn (Rep SVE);Rep SVE;101570;;;;4;4;4;
5062;Mattress Land by Sleep Fit;2600 S Mooney Blvd.;;Visalia;CA;"	93277";(559) 738-9335;"	";http://www.sleepfit.com/our-brands/simmons.asp;"	36.3073241";"	-119.3131414";;582325;582325;"	7582325";"	";"	90004430";"	 ";"	 ";"	 ";"	 ";"	NO        ";25519;SIMMONS;Serta Simmons Bedding;SSB;Los Angeles;Los Angeles_05;;;;NO;0;;0;Janet;Dechambeau;101811;Van Emmerik, Shawn (Rep SVE);Rep SVE;101570;;;;4;4;4;
5065;Mattress Land by Sleep Fit;3658 Ming Ave;;Bakersfield;CA;"	93309";(661) 833-3303;"	";http://www.sleepfit.com/our-brands/simmons.asp;"	35.3398298";"	-119.0421164";;582325;582325;"	7582325";"	";"	90004430";"	 ";"	 ";"	 ";"	 ";"	NO        ";25520;SIMMONS;Serta Simmons Bedding;SSB;Los Angeles;Los Angeles_05;;;;NO;0;;0;Janet;Dechambeau;101811;Van Emmerik, Shawn (Rep SVE);Rep SVE;101570;;;;4;4;4;
